[
{"id":5037,"company_name":"freee 株式会社","lat":"35.626813","lng":"139.721631","like_count":55443,"logo_url":"https://d2v9k5u4v94ulw.cloudfront.net/small_light(dw=120,dh=120,da=l,ds=s,cw=120,ch=120,cc=FFFFFF,of=jpeg)/assets/images/1194/original/b6da0bb7-1547-4fb9-bf42-3f179727ed63.png?1392712807"},
{"id":5253,"company_name":"アクトインディ株式会社","lat":"35.622738","lng":"139.721106","like_count":17705,"logo_url":"https://d2v9k5u4v94ulw.cloudfront.net/small_light(dw=120,dh=120,da=l,ds=s,cw=120,ch=120,cc=FFFFFF,of=jpeg)/assets/images/996/original/logo_sake.jpg?1392712798"},
{"id":2614,"company_name":"株式会社CURIO SCHOOL","lat":"35.677401","lng":"139.71198","like_count":2222,"logo_url":"https://d2v9k5u4v94ulw.cloudfront.net/small_light(dw=120,dh=120,da=l,ds=s,cw=120,ch=120,cc=FFFFFF,of=jpeg)/assets/images/149019/original/f99df0e0-b6bb-45ee-9357-499a84f2b436.jpeg?1435474551"},
{"id":1736,"company_name":"株式会社Secual","lat":"35.658464","lng":"139.703823","like_count":1441,"logo_url":"https://d2v9k5u4v94ulw.cloudfront.net/small_light(dw=120,dh=120,da=l,ds=s,cw=120,ch=120,cc=FFFFFF,of=jpeg)/assets/images/204157/original/98e76faf-3cf8-4b35-ac18-8970682d18b9.jpeg?1444835086"},
{"id":3912,"company_name":"BALIE株式会社","lat":"38.263277","lng":"140.8771","like_count":671,"logo_url":"https://d2v9k5u4v94ulw.cloudfront.net/small_light(dw=120,dh=120,da=l,ds=s,cw=120,ch=120,cc=FFFFFF,of=jpeg)/assets/images/46392/original/ee847af8-933d-4b64-8c4c-5fe0f7cf9756.png?1416213852"},
{"id":622,"company_name":"株式会社ブリスウェル","lat":"35.64879","lng":"139.712442","like_count":616,"logo_url":"https://d2v9k5u4v94ulw.cloudfront.net/small_light(dw=120,dh=120,da=l,ds=s,cw=120,ch=120,cc=FFFFFF,of=jpeg)/assets/images/15828/original/f4742bc2-53b3-46df-9b3b-ec3f16cfdf3d.png?1396516373"},
{"id":5,"company_name":"Wantedly, Inc.","lat":"35.639844","lng":"139.722172","like_count":610,"logo_url":"https://d2v9k5u4v94ulw.cloudfront.net/small_light(dw=120,dh=120,da=l,ds=s,cw=120,ch=120,cc=FFFFFF,of=jpeg)/assets/images/346/original/3d3f0504-9153-4580-b6a8-e6b8c2c0db5e.png?1405721630"},
{"id":4199,"company_name":"株式会社クルージス","lat":"35.701105","lng":"139.774724","like_count":590,"logo_url":"https://d2v9k5u4v94ulw.cloudfront.net/small_light(dw=120,dh=120,da=l,ds=s,cw=120,ch=120,cc=FFFFFF,of=jpeg)/assets/images/23323/original/8dda738b-5d0e-418a-a8b1-54d9b6dd4ebe.jpeg?1403169721"},
{"id":4567,"company_name":"株式会社プロジェクト地域活性","lat":"38.261363","lng":"140.884666","like_count":559,"logo_url":"https://d2v9k5u4v94ulw.cloudfront.net/small_light(dw=120,dh=120,da=l,ds=s,cw=120,ch=120,cc=FFFFFF,of=jpeg)/assets/images/17423/original/8421f090-37eb-4a0c-aec6-e7f8ccb4e951.jpeg?1398235357"},
{"id":628,"company_name":"株式会社アクシズポイント","lat":"35.672485","lng":"139.713147","like_count":510,"logo_url":"https://d2v9k5u4v94ulw.cloudfront.net/small_light(dw=120,dh=120,da=l,ds=s,cw=120,ch=120,cc=FFFFFF,of=jpeg)/assets/images/243064/original/90dfbb38-ee06-46ed-9e5f-13cd0409609d.jpeg?1450328634"},
{"id":5111,"company_name":"BASE株式会社","lat":"35.657989","lng":"139.696129","like_count":428,"logo_url":"https://d2v9k5u4v94ulw.cloudfront.net/small_light(dw=120,dh=120,da=l,ds=s,cw=120,ch=120,cc=FFFFFF,of=jpeg)/assets/images/2639/original/bbcc484d-460f-47da-a1b4-17f2b6f690e2.png?1439190011"},
{"id":4632,"company_name":"株式会社ISAO","lat":"35.701386","lng":"139.781393","like_count":412,"logo_url":"https://d2v9k5u4v94ulw.cloudfront.net/small_light(dw=120,dh=120,da=l,ds=s,cw=120,ch=120,cc=FFFFFF,of=jpeg)/assets/images/22228/original/90483a0e-4309-4c80-a0ea-8300d65add9f.png?1407910638"},
{"id":3866,"company_name":"イグニション・ポイント株式会社","lat":"35.661589","lng":"139.707267","like_count":306,"logo_url":"https://d2v9k5u4v94ulw.cloudfront.net/small_light(dw=120,dh=120,da=l,ds=s,cw=120,ch=120,cc=FFFFFF,of=jpeg)/assets/images/32997/original/a0d28049-aebd-40f8-9f0c-f17d5fcb81d8.png?1409025452"},
{"id":5052,"company_name":"株式会社ビズリーチ","lat":"35.658775","lng":"139.705223","like_count":233,"logo_url":"https://d2v9k5u4v94ulw.cloudfront.net/small_light(dw=120,dh=120,da=l,ds=s,cw=120,ch=120,cc=FFFFFF,of=jpeg)/assets/images/17420/original/5c5df642-d074-4407-9e8c-1fd89c58535b.png?1398232476"},
{"id":5559,"company_name":"アナグラム株式会社","lat":"35.645215","lng":"139.701654","like_count":229,"logo_url":"https://d2v9k5u4v94ulw.cloudfront.net/small_light(dw=120,dh=120,da=l,ds=s,cw=120,ch=120,cc=FFFFFF,of=jpeg)/assets/images/4327/original/c3f865ad-0a9e-4b57-ac00-ddc7f2417d65.png?1441880738"},
{"id":5630,"company_name":"株式会社イノベーター・ジャパン","lat":"35.664233","lng":"139.706825","like_count":201,"logo_url":"https://d2v9k5u4v94ulw.cloudfront.net/small_light(dw=120,dh=120,da=l,ds=s,cw=120,ch=120,cc=FFFFFF,of=jpeg)/assets/images/964/original/ivj-logo-01.png?1392712796"},
{"id":5368,"company_name":"Gunosy","lat":"35.660401","lng":"139.729043","like_count":197,"logo_url":"https://d2v9k5u4v94ulw.cloudfront.net/small_light(dw=120,dh=120,da=l,ds=s,cw=120,ch=120,cc=FFFFFF,of=jpeg)/assets/images/577/original/d11e384a-5f0e-45fd-990a-abc5aead517a.png?1400932561"},
{"id":5983,"company_name":"LINE株式会社","lat":"35.658758","lng":"139.703056","like_count":191,"logo_url":"https://d2v9k5u4v94ulw.cloudfront.net/small_light(dw=120,dh=120,da=l,ds=s,cw=120,ch=120,cc=FFFFFF,of=jpeg)/assets/images/4910/original/9ad3acc0-fe04-45d9-bd06-682a4c7e4639.png?1392712871"},
{"id":2306,"company_name":"ECマーケティング株式会社","lat":"35.655766","lng":"139.754918","like_count":150,"logo_url":"https://d2v9k5u4v94ulw.cloudfront.net/small_light(dw=120,dh=120,da=l,ds=s,cw=120,ch=120,cc=FFFFFF,of=jpeg)/assets/images/53031/original/f5a0866b-76ba-43f6-ab26-055b7bc2413c.jpeg?1434455466"},
{"id":2538,"company_name":"株式会社シリアルゲームズ","lat":"35.701544","lng":"139.779443","like_count":131,"logo_url":"https://d2v9k5u4v94ulw.cloudfront.net/small_light(dw=120,dh=120,da=l,ds=s,cw=120,ch=120,cc=FFFFFF,of=jpeg)/assets/images/14500/original/d07eff12-1c0e-4538-9662-63c863529abe.png?1395115127"},
{"id":5401,"company_name":"株式会社ヒトカラメディア","lat":"35.664923","lng":"139.701558","like_count":122,"logo_url":"https://d2v9k5u4v94ulw.cloudfront.net/small_light(dw=120,dh=120,da=l,ds=s,cw=120,ch=120,cc=FFFFFF,of=jpeg)/assets/images/25898/original/de75269d-bc82-4d00-a1b8-2a88a4d3dcf9.jpeg?1405333794"},
{"id":5069,"company_name":"(株) ピースオブケイク","lat":"35.656781","lng":"139.695896","like_count":113,"logo_url":"https://d2v9k5u4v94ulw.cloudfront.net/small_light(dw=120,dh=120,da=l,ds=s,cw=120,ch=120,cc=FFFFFF,of=jpeg)/assets/images/972/original/fe9pz0riigfw5iobxtqs.png?1392712796"},
{"id":1452,"company_name":"Fashion Attendant","lat":"35.668074","lng":"139.704086","like_count":111,"logo_url":"https://d2v9k5u4v94ulw.cloudfront.net/small_light(dw=120,dh=120,da=l,ds=s,cw=120,ch=120,cc=FFFFFF,of=jpeg)/assets/images/4807/original/b18781b3-0250-4e1e-982a-4f001d73a3cc.jpeg?1392712869"},
{"id":4395,"company_name":"ブランコ株式会社","lat":"33.591544","lng":"130.403624","like_count":109,"logo_url":"https://d2v9k5u4v94ulw.cloudfront.net/small_light(dw=120,dh=120,da=l,ds=s,cw=120,ch=120,cc=FFFFFF,of=jpeg)/assets/images/9006/original/35f8b437-03bb-4f90-932c-fc79b442955e.jpeg?1392712926"},
{"id":5159,"company_name":"株式会社i-plug (アイプラグ)","lat":"34.724879","lng":"135.500543","like_count":106,"logo_url":"https://d2v9k5u4v94ulw.cloudfront.net/small_light(dw=120,dh=120,da=l,ds=s,cw=120,ch=120,cc=FFFFFF,of=jpeg)/assets/images/3718/original/b3f91ff6-dc80-4b00-8b7a-c9ea1124c59f.gif?1392712853"},
{"id":4527,"company_name":"株式会社コムリエ","lat":"35.669087","lng":"139.68931","like_count":105,"logo_url":"https://d2v9k5u4v94ulw.cloudfront.net/small_light(dw=120,dh=120,da=l,ds=s,cw=120,ch=120,cc=FFFFFF,of=jpeg)/assets/images/39625/original/f61c979c-41b3-4e6b-88d9-efbf88e4217f.jpeg?1412696683"},
{"id":5083,"company_name":"株式会社プレイド","lat":"35.625566","lng":"139.723361","like_count":102,"logo_url":"https://d2v9k5u4v94ulw.cloudfront.net/small_light(dw=120,dh=120,da=l,ds=s,cw=120,ch=120,cc=FFFFFF,of=jpeg)/assets/images/24959/original/9a32a503-9a8a-4b5e-b747-c08a2391fa21.jpeg?1436340418"},
{"id":3386,"company_name":"株式会社ワールドダイニング","lat":"35.70013","lng":"139.768322","like_count":100,"logo_url":"https://d2v9k5u4v94ulw.cloudfront.net/small_light(dw=120,dh=120,da=l,ds=s,cw=120,ch=120,cc=FFFFFF,of=jpeg)/assets/images/98436/original/936a3971-d4ce-4ebf-a9cb-65782ca6a50f.jpeg?1426222035"},
{"id":5034,"company_name":"Retty株式会社","lat":"35.62541","lng":"139.730563","like_count":98,"logo_url":"https://d2v9k5u4v94ulw.cloudfront.net/small_light(dw=120,dh=120,da=l,ds=s,cw=120,ch=120,cc=FFFFFF,of=jpeg)/assets/images/1024/original/3a0ae031-b168-47c0-82d7-d42411a9a4c3.png?1439975107"},
{"id":5264,"company_name":"株式会社百戦錬磨","lat":"35.701747","lng":"139.766561","like_count":84,"logo_url":"https://d2v9k5u4v94ulw.cloudfront.net/small_light(dw=120,dh=120,da=l,ds=s,cw=120,ch=120,cc=FFFFFF,of=jpeg)/assets/images/40562/original/6c866437-2cf6-47c1-8260-dea72ded4065.jpeg?1413351021"},
{"id":4751,"company_name":"株式会社Synclogue","lat":"35.701067","lng":"139.776813","like_count":82,"logo_url":"https://d2v9k5u4v94ulw.cloudfront.net/small_light(dw=120,dh=120,da=l,ds=s,cw=120,ch=120,cc=FFFFFF,of=jpeg)/assets/images/6050/original/35aa3479-4a6a-4b9b-9452-a1507e189a88.png?1392712888"},
{"id":1924,"company_name":"株式会社まちこえ","lat":"35.64846","lng":"139.712247","like_count":70,"logo_url":"https://d2v9k5u4v94ulw.cloudfront.net/small_light(dw=120,dh=120,da=l,ds=s,cw=120,ch=120,cc=FFFFFF,of=jpeg)/assets/images/42659/original/f5723a90-49c7-4cd8-a6c4-c0724964cab3.png?1414404033"},
{"id":5923,"company_name":"株式会社オズビジョン","lat":"35.695508","lng":"139.760275","like_count":70,"logo_url":"https://d2v9k5u4v94ulw.cloudfront.net/small_light(dw=120,dh=120,da=l,ds=s,cw=120,ch=120,cc=FFFFFF,of=jpeg)/assets/images/145940/original/fe71d08c-c7f4-4f4f-822e-d45f8e26f940.jpeg?1434942192"},
{"id":4404,"company_name":"株式会社ねこじゃらし","lat":"35.669","lng":"139.738142","like_count":66,"logo_url":"https://d2v9k5u4v94ulw.cloudfront.net/small_light(dw=120,dh=120,da=l,ds=s,cw=120,ch=120,cc=FFFFFF,of=jpeg)/assets/images/24629/original/7bc50508-e77f-4f4e-9ca9-f320c78124f0.png?1404174580"},
{"id":5155,"company_name":"スマートニュース株式会社","lat":"35.665544","lng":"139.702678","like_count":61,"logo_url":"https://d2v9k5u4v94ulw.cloudfront.net/small_light(dw=120,dh=120,da=l,ds=s,cw=120,ch=120,cc=FFFFFF,of=jpeg)/assets/images/247643/original/6d21ece1-2e81-40ba-812e-5bdc14ac319a.png?1450779609"},
{"id":5814,"company_name":"株式会社インターファーム","lat":"35.654486","lng":"139.700026","like_count":60,"logo_url":"https://d2v9k5u4v94ulw.cloudfront.net/small_light(dw=120,dh=120,da=l,ds=s,cw=120,ch=120,cc=FFFFFF,of=jpeg)/assets/images/8546/original/4432dd5b-9183-4c6a-b158-b1ba2545f556.png?1431071673"},
{"id":4136,"company_name":"テモナ株式会社","lat":"35.65885","lng":"139.707331","like_count":55,"logo_url":"https://d2v9k5u4v94ulw.cloudfront.net/small_light(dw=120,dh=120,da=l,ds=s,cw=120,ch=120,cc=FFFFFF,of=jpeg)/assets/images/24177/original/b4221f3c-f3c2-488f-b9de-c222c146b741.png?1403783574"},
{"id":4807,"company_name":"株式会社wapon","lat":"36.535244","lng":"136.570805","like_count":55,"logo_url":"https://d2v9k5u4v94ulw.cloudfront.net/small_light(dw=120,dh=120,da=l,ds=s,cw=120,ch=120,cc=FFFFFF,of=jpeg)/assets/images/5677/original/442c6c1c-92fa-4a12-ac56-029eeb2fa244.png?1392712883"},
{"id":5644,"company_name":"マンションリサーチ株式会社","lat":"35.696347","lng":"139.752112","like_count":52,"logo_url":"https://d2v9k5u4v94ulw.cloudfront.net/small_light(dw=120,dh=120,da=l,ds=s,cw=120,ch=120,cc=FFFFFF,of=jpeg)/assets/images/36022/original/34867d30-8683-46d4-89bb-52a2244d0b9b.jpeg?1410491636"},
{"id":4761,"company_name":"株式会社ヴィリング","lat":"35.705282","lng":"139.623328","like_count":51,"logo_url":"https://d2v9k5u4v94ulw.cloudfront.net/small_light(dw=120,dh=120,da=l,ds=s,cw=120,ch=120,cc=FFFFFF,of=jpeg)/assets/images/5973/original/d47d1bf4-7e5f-46f6-a2ff-c0826d372ccb.png?1411722242"},
{"id":5854,"company_name":"株式会社mikan","lat":"35.656531","lng":"139.700996","like_count":49,"logo_url":"https://d2v9k5u4v94ulw.cloudfront.net/small_light(dw=120,dh=120,da=l,ds=s,cw=120,ch=120,cc=FFFFFF,of=jpeg)/assets/images/56478/original/f27b36f8-e409-4930-9221-2d022a8d3d87.png?1418786437"},
{"id":5047,"company_name":"ライフイズテック株式会社","lat":"35.647302","lng":"139.735979","like_count":45,"logo_url":"https://d2v9k5u4v94ulw.cloudfront.net/small_light(dw=120,dh=120,da=l,ds=s,cw=120,ch=120,cc=FFFFFF,of=jpeg)/assets/images/5280/original/763855fc-51a7-4ab1-8e50-93f7291a8c45.jpeg?1418091410"},
{"id":5333,"company_name":"株式会社ロックオン","lat":"34.698684","lng":"135.494018","like_count":45,"logo_url":"https://d2v9k5u4v94ulw.cloudfront.net/small_light(dw=120,dh=120,da=l,ds=s,cw=120,ch=120,cc=FFFFFF,of=jpeg)/assets/images/11953/original/67d5e678-cc20-4fd1-8391-ccdcc5eba68a.jpeg?1396838136"},
{"id":5793,"company_name":"株式会社スタジオ・アルカナ","lat":"35.703854","lng":"139.625608","like_count":44,"logo_url":"https://d2v9k5u4v94ulw.cloudfront.net/small_light(dw=120,dh=120,da=l,ds=s,cw=120,ch=120,cc=FFFFFF,of=jpeg)/assets/images/10224/original/a22521ad-15a5-4eff-aad8-af20168bfc8f.png?1437142784"},
{"id":5335,"company_name":"GMOクリックホールディングス株式会社","lat":"35.655314","lng":"139.700996","like_count":43,"logo_url":"https://d2v9k5u4v94ulw.cloudfront.net/small_light(dw=120,dh=120,da=l,ds=s,cw=120,ch=120,cc=FFFFFF,of=jpeg)/assets/images/20593/original/be1257c3-c904-48ce-a72f-00af10b2acdc.png?1401169821"},
{"id":5668,"company_name":"株式会社ユニラボ","lat":"35.624099","lng":"139.72195","like_count":37,"logo_url":"https://d2v9k5u4v94ulw.cloudfront.net/small_light(dw=120,dh=120,da=l,ds=s,cw=120,ch=120,cc=FFFFFF,of=jpeg)/assets/images/25728/original/f03f8784-c62e-4ce7-bcdc-ba41197d5aa7.png?1448431768"},
{"id":5343,"company_name":"株式会社つみき","lat":"35.650975","lng":"139.689027","like_count":36,"logo_url":"https://d2v9k5u4v94ulw.cloudfront.net/small_light(dw=120,dh=120,da=l,ds=s,cw=120,ch=120,cc=FFFFFF,of=jpeg)/assets/images/2319/original/3ff7b964-3771-4a0a-a701-e1a0c17373fa.jpeg?1392712837"},
{"id":5054,"company_name":"チームラボ株式会社","lat":"35.704213","lng":"139.756536","like_count":33,"logo_url":"https://d2v9k5u4v94ulw.cloudfront.net/small_light(dw=120,dh=120,da=l,ds=s,cw=120,ch=120,cc=FFFFFF,of=jpeg)/assets/images/592/original/e1e7a472-54d4-4383-b32b-10d4dab4733b.png?1450762513"},
{"id":4657,"company_name":"株式会社サイファーポイント","lat":"35.642475","lng":"139.734274","like_count":32,"logo_url":"https://d2v9k5u4v94ulw.cloudfront.net/small_light(dw=120,dh=120,da=l,ds=s,cw=120,ch=120,cc=FFFFFF,of=jpeg)/assets/images/21646/original/13cf33d0-5a6b-4759-a8bd-8247da9418a2.jpeg?1401937286"},
{"id":5023,"company_name":"レイ・フロンティア株式会社","lat":"35.702777","lng":"139.776591","like_count":31,"logo_url":"https://d2v9k5u4v94ulw.cloudfront.net/small_light(dw=120,dh=120,da=l,ds=s,cw=120,ch=120,cc=FFFFFF,of=jpeg)/assets/images/7354/original/b8a66ab9-d560-4970-8b71-7951cd2539c7.png?1424147913"},
{"id":4735,"company_name":"株式会社キューブリック","lat":"35.664074","lng":"139.709986","like_count":31,"logo_url":"https://d2v9k5u4v94ulw.cloudfront.net/small_light(dw=120,dh=120,da=l,ds=s,cw=120,ch=120,cc=FFFFFF,of=jpeg)/assets/images/86640/original/77eed31e-6870-49c5-9ad1-a260f7d37cc0.jpeg?1424403555"},
{"id":5624,"company_name":"株式会社フューチャーショップ","lat":"34.703959","lng":"135.494852","like_count":30,"logo_url":"https://d2v9k5u4v94ulw.cloudfront.net/small_light(dw=120,dh=120,da=l,ds=s,cw=120,ch=120,cc=FFFFFF,of=jpeg)/assets/images/157647/original/3bc1af09-b344-4ddc-b676-d8746da45dc9.png?1450400592"},
{"id":3682,"company_name":"株式会社D\u0026I","lat":"35.648066","lng":"139.744867","like_count":30,"logo_url":"https://d2v9k5u4v94ulw.cloudfront.net/small_light(dw=120,dh=120,da=l,ds=s,cw=120,ch=120,cc=FFFFFF,of=jpeg)/assets/images/122266/original/fcbc3367-a7aa-4df8-aebf-0074fe0726c1.png?1430124415"},
{"id":4639,"company_name":"PETAGO株式会社","lat":"35.660763","lng":"139.696974","like_count":27,"logo_url":"https://d2v9k5u4v94ulw.cloudfront.net/small_light(dw=120,dh=120,da=l,ds=s,cw=120,ch=120,cc=FFFFFF,of=jpeg)/assets/images/39474/original/73ea293f-73fc-4148-b2a8-2e48da4edd5f.jpeg?1412604645"},
{"id":2072,"company_name":"株式会社CINRA","lat":"35.656675","lng":"139.696313","like_count":27,"logo_url":"https://d2v9k5u4v94ulw.cloudfront.net/small_light(dw=120,dh=120,da=l,ds=s,cw=120,ch=120,cc=FFFFFF,of=jpeg)/assets/images/5602/original/751c992e-cd3d-4702-94ce-6e8bbcaaa29f.png?1418950884"},
{"id":5336,"company_name":"iemo株式会社","lat":"35.659025","lng":"139.703473","like_count":25,"logo_url":"https://d2v9k5u4v94ulw.cloudfront.net/small_light(dw=120,dh=120,da=l,ds=s,cw=120,ch=120,cc=FFFFFF,of=jpeg)/assets/images/12498/original/b3c2c111-9c68-458a-81b5-0b432d396d41.png?1392712965"},
{"id":5107,"company_name":"株式会社ABEJA","lat":"35.661198","lng":"139.737056","like_count":24,"logo_url":"https://d2v9k5u4v94ulw.cloudfront.net/small_light(dw=120,dh=120,da=l,ds=s,cw=120,ch=120,cc=FFFFFF,of=jpeg)/assets/images/4985/original/22ad8cee-9912-4971-a2b9-e6c0cbab3357.gif?1392712873"},
{"id":479,"company_name":"株式会社ハイパーエイト","lat":"35.659589","lng":"139.708739","like_count":24,"logo_url":"https://d2v9k5u4v94ulw.cloudfront.net/small_light(dw=120,dh=120,da=l,ds=s,cw=120,ch=120,cc=FFFFFF,of=jpeg)/assets/images/7112/original/33fe2ff2-a9b1-4350-96bf-f0755a715990.jpeg?1392712905"},
{"id":195,"company_name":"株式会社ベントー・ドット・ジェーピー","lat":"35.658678","lng":"139.697643","like_count":23,"logo_url":"https://d2v9k5u4v94ulw.cloudfront.net/small_light(dw=120,dh=120,da=l,ds=s,cw=120,ch=120,cc=FFFFFF,of=jpeg)/assets/images/16618/original/f7e0a295-ab1b-4e60-9331-db43086ee909.png?1397314909"},
{"id":5536,"company_name":"株式会社アラタナ","lat":"31.916337","lng":"131.43122","like_count":22,"logo_url":"https://d2v9k5u4v94ulw.cloudfront.net/small_light(dw=120,dh=120,da=l,ds=s,cw=120,ch=120,cc=FFFFFF,of=jpeg)/assets/images/2162/original/%E5%90%8D%E7%A7%B0%E6%9C%AA%E8%A8%AD%E5%AE%9A-1.png?1392712835"},
{"id":5528,"company_name":"株式会社SKIYAKI","lat":"35.65582","lng":"139.701701","like_count":22,"logo_url":"https://d2v9k5u4v94ulw.cloudfront.net/small_light(dw=120,dh=120,da=l,ds=s,cw=120,ch=120,cc=FFFFFF,of=jpeg)/assets/images/8308/original/0eaa761a-ec1e-44f8-866b-95d6e931e082.png?1449484368"},
{"id":5003,"company_name":"株式会社7gogo","lat":"35.656542","lng":"139.695041","like_count":21,"logo_url":"https://d2v9k5u4v94ulw.cloudfront.net/small_light(dw=120,dh=120,da=l,ds=s,cw=120,ch=120,cc=FFFFFF,of=jpeg)/assets/images/12190/original/c043d0c7-9b07-4813-a1c2-a24ee0c8c8a6.png?1413346993"},
{"id":912,"company_name":"株式会社ライフベア","lat":"35.627604","lng":"139.724489","like_count":21,"logo_url":"https://d2v9k5u4v94ulw.cloudfront.net/small_light(dw=120,dh=120,da=l,ds=s,cw=120,ch=120,cc=FFFFFF,of=jpeg)/assets/images/6564/original/144918d6-90dc-4431-b9c9-66c6c5901b75.png?1392712894"},
{"id":5183,"company_name":"株式会社ワークスアプリケーションズ","lat":"35.667086","lng":"139.740005","like_count":20,"logo_url":"https://d2v9k5u4v94ulw.cloudfront.net/small_light(dw=120,dh=120,da=l,ds=s,cw=120,ch=120,cc=FFFFFF,of=jpeg)/assets/images/31879/original/f30a53dd-5294-4e0d-adbf-4c9f8ded126b.jpeg?1409664018"},
{"id":5526,"company_name":"株式会社MapleSystems","lat":"35.739498","lng":"139.661507","like_count":20,"logo_url":"https://d2v9k5u4v94ulw.cloudfront.net/small_light(dw=120,dh=120,da=l,ds=s,cw=120,ch=120,cc=FFFFFF,of=jpeg)/assets/images/152577/original/bfbcaa6a-f147-4153-843d-c50934b8fa78.png?1436161032"},
{"id":4510,"company_name":"エディプレックス株式会社","lat":"35.694104","lng":"139.707038","like_count":20,"logo_url":"https://d2v9k5u4v94ulw.cloudfront.net/small_light(dw=120,dh=120,da=l,ds=s,cw=120,ch=120,cc=FFFFFF,of=jpeg)/assets/images/19990/original/91ae6db9-5551-4eb7-b446-401599264561.png?1400658487"},
{"id":4371,"company_name":"ユニークビジョン株式会社","lat":"35.677442","lng":"139.706383","like_count":20,"logo_url":"https://d2v9k5u4v94ulw.cloudfront.net/small_light(dw=120,dh=120,da=l,ds=s,cw=120,ch=120,cc=FFFFFF,of=jpeg)/assets/images/8809/original/1479d618-23f2-42a8-b56d-8ad6008a2093.jpeg?1392712924"},
{"id":1640,"company_name":"ラフアンドレディ株式会社","lat":"35.639703","lng":"139.714328","like_count":20,"logo_url":"https://d2v9k5u4v94ulw.cloudfront.net/small_light(dw=120,dh=120,da=l,ds=s,cw=120,ch=120,cc=FFFFFF,of=jpeg)/assets/images/147264/original/a8e6b321-6ae1-4c7f-b0ef-8e99bafa52c7.png?1440742956"},
{"id":5608,"company_name":"株式会社パズル","lat":"34.697779","lng":"135.514403","like_count":19,"logo_url":"https://d2v9k5u4v94ulw.cloudfront.net/small_light(dw=120,dh=120,da=l,ds=s,cw=120,ch=120,cc=FFFFFF,of=jpeg)/assets/images/193813/original/ac43c77d-8abf-4978-9740-0ffb4e2846bc.jpeg?1443506450"},
{"id":5149,"company_name":"株式会社LIG","lat":"35.710285","lng":"139.77714","like_count":19,"logo_url":"https://d2v9k5u4v94ulw.cloudfront.net/small_light(dw=120,dh=120,da=l,ds=s,cw=120,ch=120,cc=FFFFFF,of=jpeg)/assets/images/15101/original/042f1c25-0db3-4650-ac91-5987ebe02446.png?1446641646"},
{"id":4980,"company_name":"KAI-YOU, LLC. ","lat":"35.730598","lng":"139.720004","like_count":17,"logo_url":"https://d2v9k5u4v94ulw.cloudfront.net/small_light(dw=120,dh=120,da=l,ds=s,cw=120,ch=120,cc=FFFFFF,of=jpeg)/assets/images/5562/original/139ca45a-c6de-4ce4-b3bd-0bf37596805e.jpeg?1392712881"},
{"id":4883,"company_name":"Creww株式会社","lat":"35.647757","lng":"139.697485","like_count":17,"logo_url":"https://d2v9k5u4v94ulw.cloudfront.net/small_light(dw=120,dh=120,da=l,ds=s,cw=120,ch=120,cc=FFFFFF,of=jpeg)/assets/images/32819/original/7574886d-4667-4792-b3ca-d28f9ef1649c.jpeg?1408947269"},
{"id":5059,"company_name":"ランサーズ株式会社","lat":"35.656825","lng":"139.705153","like_count":17,"logo_url":"https://d2v9k5u4v94ulw.cloudfront.net/small_light(dw=120,dh=120,da=l,ds=s,cw=120,ch=120,cc=FFFFFF,of=jpeg)/assets/images/1116/original/f202e388-147b-4be1-b2e2-0ec1d273fe4e.png?1392712803"},
{"id":795,"company_name":"キュレーションズ株式会社","lat":"35.660558","lng":"139.705142","like_count":17,"logo_url":"https://d2v9k5u4v94ulw.cloudfront.net/small_light(dw=120,dh=120,da=l,ds=s,cw=120,ch=120,cc=FFFFFF,of=jpeg)/assets/images/237438/original/5fe70fee-d62c-4a28-958a-6c86b6b165c1.png?1449569660"},
{"id":5147,"company_name":"株式会社ユーザベース","lat":"35.647374","lng":"139.714442","like_count":16,"logo_url":"https://d2v9k5u4v94ulw.cloudfront.net/small_light(dw=120,dh=120,da=l,ds=s,cw=120,ch=120,cc=FFFFFF,of=jpeg)/assets/images/16774/original/0304aba0-0ed1-4066-a019-ce04aafe83a2.png?1438319830"},
{"id":4509,"company_name":"株式会社fino","lat":"35.664035","lng":"139.698212","like_count":15,"logo_url":"https://d2v9k5u4v94ulw.cloudfront.net/small_light(dw=120,dh=120,da=l,ds=s,cw=120,ch=120,cc=FFFFFF,of=jpeg)/assets/images/19841/original/9a9ff793-6464-426d-b769-81160a012a7b.jpeg?1400573721"},
{"id":4855,"company_name":"株式会社シンクスマイル","lat":"35.659694","lng":"139.701956","like_count":15,"logo_url":"https://d2v9k5u4v94ulw.cloudfront.net/small_light(dw=120,dh=120,da=l,ds=s,cw=120,ch=120,cc=FFFFFF,of=jpeg)/assets/images/23627/original/eb2a5601-a59f-401d-bd6e-23780d816e8b.jpeg?1403497475"},
{"id":5671,"company_name":"ココン株式会社","lat":"35.689323","lng":"139.682346","like_count":15,"logo_url":"https://d2v9k5u4v94ulw.cloudfront.net/small_light(dw=120,dh=120,da=l,ds=s,cw=120,ch=120,cc=FFFFFF,of=jpeg)/assets/images/3667/original/928cd0cd-b9f9-49fc-9ae8-3f23a9f707a7.png?1449727648"},
{"id":2552,"company_name":"一般社団法人　東大無料塾","lat":"35.661321","lng":"139.68776","like_count":15,"logo_url":"https://d2v9k5u4v94ulw.cloudfront.net/small_light(dw=120,dh=120,da=l,ds=s,cw=120,ch=120,cc=FFFFFF,of=jpeg)/assets/images/10336/original/2050c95e-87ff-46e4-ba00-70c3114a1914.png?1392712941"},
{"id":1123,"company_name":"JX通信社","lat":"35.700141","lng":"139.747798","like_count":14,"logo_url":"https://d2v9k5u4v94ulw.cloudfront.net/small_light(dw=120,dh=120,da=l,ds=s,cw=120,ch=120,cc=FFFFFF,of=jpeg)/assets/images/2072/original/233d34c4-344b-4156-98d1-56c8ddfc825f.png?1445306418"},
{"id":4054,"company_name":"株式会社コミクス（GeeeN）","lat":"35.657644","lng":"139.694285","like_count":14,"logo_url":"https://d2v9k5u4v94ulw.cloudfront.net/small_light(dw=120,dh=120,da=l,ds=s,cw=120,ch=120,cc=FFFFFF,of=jpeg)/assets/images/35716/original/374382b4-a1d0-4d31-8d33-7c9012a968a8.jpeg?1410338260"},
{"id":5170,"company_name":"Fringe81株式会社","lat":"35.661814","lng":"139.730026","like_count":13,"logo_url":"https://d2v9k5u4v94ulw.cloudfront.net/small_light(dw=120,dh=120,da=l,ds=s,cw=120,ch=120,cc=FFFFFF,of=jpeg)/assets/images/32168/original/1c2e10a6-f4e8-4bff-8030-ee5eff16a0ca.png?1408536513"},
{"id":5217,"company_name":"株式会社EVERRISE","lat":"35.664386","lng":"139.731793","like_count":13,"logo_url":"https://d2v9k5u4v94ulw.cloudfront.net/small_light(dw=120,dh=120,da=l,ds=s,cw=120,ch=120,cc=FFFFFF,of=jpeg)/assets/images/30216/original/f1684f43-ceda-4647-8e02-324cb91053bf.jpeg?1444714405"},
{"id":5072,"company_name":"GMOペパボ株式会社","lat":"35.656456","lng":"139.699418","like_count":13,"logo_url":"https://d2v9k5u4v94ulw.cloudfront.net/small_light(dw=120,dh=120,da=l,ds=s,cw=120,ch=120,cc=FFFFFF,of=jpeg)/assets/images/16092/original/19a45aa1-dc61-42f8-9ccc-7a6ebd336dc3.jpeg?1397212741"},
{"id":5061,"company_name":"株式会社ZUU","lat":"35.652684","lng":"139.690449","like_count":13,"logo_url":"https://d2v9k5u4v94ulw.cloudfront.net/small_light(dw=120,dh=120,da=l,ds=s,cw=120,ch=120,cc=FFFFFF,of=jpeg)/assets/images/18066/original/1fbffc21-c6a6-4c5f-8d74-aed6937fdcfe.png?1399869243"},
{"id":3681,"company_name":"株式会社うちナビ","lat":"35.657989","lng":"139.696129","like_count":13,"logo_url":"https://d2v9k5u4v94ulw.cloudfront.net/small_light(dw=120,dh=120,da=l,ds=s,cw=120,ch=120,cc=FFFFFF,of=jpeg)/assets/images/48042/original/784fbf48-92c8-4ff6-bd20-e3083e6e1c45.jpeg?1416900997"},
{"id":5529,"company_name":"コーチ・ユナイテッド株式会社","lat":"35.66271","lng":"139.700512","like_count":13,"logo_url":"https://d2v9k5u4v94ulw.cloudfront.net/small_light(dw=120,dh=120,da=l,ds=s,cw=120,ch=120,cc=FFFFFF,of=jpeg)/assets/images/2550/original/14498155-630b-42fd-9c84-08755c6b8efd.png?1426644328"},
{"id":2944,"company_name":"株式会社ブラン","lat":"35.626072","lng":"139.745329","like_count":12,"logo_url":"https://d2v9k5u4v94ulw.cloudfront.net/small_light(dw=120,dh=120,da=l,ds=s,cw=120,ch=120,cc=FFFFFF,of=jpeg)/assets/images/116005/original/94004adf-1963-41a0-83eb-d89a808300d5.jpeg?1429072338"},
{"id":5589,"company_name":"株式会社クリエイターズマッチ","lat":"35.648507","lng":"139.71845","like_count":12,"logo_url":"https://d2v9k5u4v94ulw.cloudfront.net/small_light(dw=120,dh=120,da=l,ds=s,cw=120,ch=120,cc=FFFFFF,of=jpeg)/assets/images/6851/original/144db110-ec02-459a-9679-aa52613f09ee.png?1431502211"},
{"id":4575,"company_name":"Mogic株式会社","lat":"35.741024","lng":"139.607545","like_count":11,"logo_url":"https://d2v9k5u4v94ulw.cloudfront.net/small_light(dw=120,dh=120,da=l,ds=s,cw=120,ch=120,cc=FFFFFF,of=jpeg)/assets/images/42124/original/c17a4247-50c8-4014-afe4-1ae99d12378e.png?1414060556"},
{"id":5050,"company_name":"株式会社エウレカ","lat":"35.669394","lng":"139.716722","like_count":11,"logo_url":"https://d2v9k5u4v94ulw.cloudfront.net/small_light(dw=120,dh=120,da=l,ds=s,cw=120,ch=120,cc=FFFFFF,of=jpeg)/assets/images/1432/original/logo3.png?1392712815"},
{"id":5556,"company_name":"GMOメディア株式会社","lat":"35.656456","lng":"139.699418","like_count":11,"logo_url":"https://d2v9k5u4v94ulw.cloudfront.net/small_light(dw=120,dh=120,da=l,ds=s,cw=120,ch=120,cc=FFFFFF,of=jpeg)/assets/images/27077/original/42114ca8-b4d5-4d6e-a5aa-cf14a0e72e4a.png?1445322809"},
{"id":5617,"company_name":"dely株式会社","lat":"35.655442","lng":"139.70249","like_count":11,"logo_url":"https://d2v9k5u4v94ulw.cloudfront.net/small_light(dw=120,dh=120,da=l,ds=s,cw=120,ch=120,cc=FFFFFF,of=jpeg)/assets/images/17639/original/90150ea4-669b-4071-8fc8-b3ea87ced826.png?1400063929"},
{"id":5403,"company_name":"株式会社ロフトワーク","lat":"35.656061","lng":"139.695493","like_count":11,"logo_url":"https://d2v9k5u4v94ulw.cloudfront.net/small_light(dw=120,dh=120,da=l,ds=s,cw=120,ch=120,cc=FFFFFF,of=jpeg)/assets/images/56997/original/789e1459-795e-4938-b7e8-4e2b2fc1f599.jpeg?1418887705"},
{"id":5361,"company_name":"株式会社Intimate Merger","lat":"35.665533","lng":"139.735825","like_count":11,"logo_url":"https://d2v9k5u4v94ulw.cloudfront.net/small_light(dw=120,dh=120,da=l,ds=s,cw=120,ch=120,cc=FFFFFF,of=jpeg)/assets/images/11080/original/cedc5e2e-b7fe-40e0-99b3-6748f6862378.jpeg?1392712948"},
{"id":5971,"company_name":"Fablic, Inc.","lat":"35.648232","lng":"139.712697","like_count":11,"logo_url":"https://d2v9k5u4v94ulw.cloudfront.net/small_light(dw=120,dh=120,da=l,ds=s,cw=120,ch=120,cc=FFFFFF,of=jpeg)/assets/images/1399/original/6b795c8f-5a8e-4568-90c8-a4b8f6261146.png?1437711485"},
{"id":4681,"company_name":"株式会社ダースー","lat":"35.65615","lng":"139.701309","like_count":11,"logo_url":"https://d2v9k5u4v94ulw.cloudfront.net/small_light(dw=120,dh=120,da=l,ds=s,cw=120,ch=120,cc=FFFFFF,of=jpeg)/assets/images/6814/original/a5e3587f-cee4-4e23-aef5-5c65cb756bcd.png?1392712898"},
{"id":5927,"company_name":"株式会社フィードフォース","lat":"35.705071","lng":"139.768188","like_count":11,"logo_url":"https://d2v9k5u4v94ulw.cloudfront.net/small_light(dw=120,dh=120,da=l,ds=s,cw=120,ch=120,cc=FFFFFF,of=jpeg)/assets/images/824/original/logo.png?1392712793"},
{"id":5871,"company_name":"株式会社スカイアーク","lat":"42.929303","lng":"143.17661","like_count":10,"logo_url":"https://d2v9k5u4v94ulw.cloudfront.net/small_light(dw=120,dh=120,da=l,ds=s,cw=120,ch=120,cc=FFFFFF,of=jpeg)/assets/images/1305/original/d55649a5-5113-429c-b136-974ce141cf41.png?1429183925"},
{"id":2781,"company_name":"株式会社パブリックグッド","lat":"35.658517","lng":"139.701334","like_count":10,"logo_url":"https://d2v9k5u4v94ulw.cloudfront.net/small_light(dw=120,dh=120,da=l,ds=s,cw=120,ch=120,cc=FFFFFF,of=jpeg)/assets/images/137756/original/2d0f29a4-5d08-4437-8ce0-76ff3ea9bd2b.png?1433326572"},
{"id":5967,"company_name":"East Ventures","lat":"35.664339","lng":"139.732031","like_count":10,"logo_url":"https://d2v9k5u4v94ulw.cloudfront.net/small_light(dw=120,dh=120,da=l,ds=s,cw=120,ch=120,cc=FFFFFF,of=jpeg)/assets/images/31004/original/8f8cdbfd-ccee-40fa-a5f6-264ac6b4eeb9.png?1429258437"},
{"id":61,"company_name":"株式会社ヌーラボ","lat":"33.594349","lng":"130.403729","like_count":10,"logo_url":"https://d2v9k5u4v94ulw.cloudfront.net/small_light(dw=120,dh=120,da=l,ds=s,cw=120,ch=120,cc=FFFFFF,of=jpeg)/assets/images/9637/original/d9f650fb-90bb-449c-9212-56c20f4fa73a.jpeg?1392712933"},
{"id":584,"company_name":"ザワット株式会社","lat":"35.627252","lng":"139.726827","like_count":10,"logo_url":"https://d2v9k5u4v94ulw.cloudfront.net/small_light(dw=120,dh=120,da=l,ds=s,cw=120,ch=120,cc=FFFFFF,of=jpeg)/assets/images/1263/original/zawatt_logo.jpg?1392712811"},
{"id":4587,"company_name":"株式会社カルテットコミュニケーションズ","lat":"35.167548","lng":"136.899413","like_count":10,"logo_url":"https://d2v9k5u4v94ulw.cloudfront.net/small_light(dw=120,dh=120,da=l,ds=s,cw=120,ch=120,cc=FFFFFF,of=jpeg)/assets/images/16283/original/862ed8c1-e6e2-4989-95d6-05bd5ef07321.png?1397004436"},
{"id":5717,"company_name":"株式会社ジオコード","lat":"35.663752","lng":"139.710747","like_count":10,"logo_url":"https://d2v9k5u4v94ulw.cloudfront.net/small_light(dw=120,dh=120,da=l,ds=s,cw=120,ch=120,cc=FFFFFF,of=jpeg)/assets/images/45406/original/3e678f96-216c-4bb1-9660-a878ddf4a77a.jpeg?1416550206"},
{"id":4533,"company_name":"株式会社エビソル","lat":"35.64744","lng":"139.707312","like_count":10,"logo_url":"https://d2v9k5u4v94ulw.cloudfront.net/small_light(dw=120,dh=120,da=l,ds=s,cw=120,ch=120,cc=FFFFFF,of=jpeg)/assets/images/29608/original/5089e6ba-294f-4188-a723-886cf7aff98e.png?1412823852"},
{"id":1252,"company_name":"株式会社DenDesign","lat":"35.653626","lng":"139.707356","like_count":10,"logo_url":"https://d2v9k5u4v94ulw.cloudfront.net/small_light(dw=120,dh=120,da=l,ds=s,cw=120,ch=120,cc=FFFFFF,of=jpeg)/assets/images/41849/original/6d83a16e-303f-492a-9580-edef71b70b64.png?1413958124"},
{"id":2031,"company_name":"スターマーク株式会社","lat":"35.660741","lng":"139.699462","like_count":10,"logo_url":"https://d2v9k5u4v94ulw.cloudfront.net/small_light(dw=120,dh=120,da=l,ds=s,cw=120,ch=120,cc=FFFFFF,of=jpeg)/assets/images/174805/original/f526404f-9424-4c95-b96c-34c1d301a3ac.png?1439859497"},
{"id":5172,"company_name":"クックビズ株式会社","lat":"34.707253","lng":"135.496326","like_count":9,"logo_url":"https://d2v9k5u4v94ulw.cloudfront.net/small_light(dw=120,dh=120,da=l,ds=s,cw=120,ch=120,cc=FFFFFF,of=jpeg)/assets/images/5844/original/e30536fc-b58a-4109-8203-57330ec11347.png?1392712885"},
{"id":2496,"company_name":"株式会社スカイリンク","lat":"35.647268","lng":"139.710275","like_count":9,"logo_url":"https://d2v9k5u4v94ulw.cloudfront.net/small_light(dw=120,dh=120,da=l,ds=s,cw=120,ch=120,cc=FFFFFF,of=jpeg)/assets/images/7656/original/154932d6-ced9-4f01-9373-2beb002c29d9.jpeg?1392712912"},
{"id":5077,"company_name":"サムライト株式会社","lat":"35.661033","lng":"139.707842","like_count":9,"logo_url":"https://d2v9k5u4v94ulw.cloudfront.net/small_light(dw=120,dh=120,da=l,ds=s,cw=120,ch=120,cc=FFFFFF,of=jpeg)/assets/images/12116/original/5149948c-4bb3-4ccf-acf0-2970aaf4bc85.png?1392712958"},
{"id":801,"company_name":"株式会社セフリ","lat":"33.597496","lng":"130.39948","like_count":8,"logo_url":"https://d2v9k5u4v94ulw.cloudfront.net/small_light(dw=120,dh=120,da=l,ds=s,cw=120,ch=120,cc=FFFFFF,of=jpeg)/assets/images/38977/original/633839ec-0208-4a1c-846a-4ff754ab6eb1.png?1412305261"},
{"id":485,"company_name":"株式会社ブラケット","lat":"35.66275","lng":"139.70892","like_count":8,"logo_url":"https://d2v9k5u4v94ulw.cloudfront.net/small_light(dw=120,dh=120,da=l,ds=s,cw=120,ch=120,cc=FFFFFF,of=jpeg)/assets/images/1202/original/logo.jpg?1392712807"},
{"id":821,"company_name":"シーサー株式会社","lat":"35.657014","lng":"139.706584","like_count":8,"logo_url":"https://d2v9k5u4v94ulw.cloudfront.net/small_light(dw=120,dh=120,da=l,ds=s,cw=120,ch=120,cc=FFFFFF,of=jpeg)/assets/images/16284/original/2ef0c4da-6983-4b02-a574-7d337073f1af.jpeg?1397009985"},
{"id":4333,"company_name":"株式会社SOOL","lat":"35.656722","lng":"139.702037","like_count":8,"logo_url":"https://d2v9k5u4v94ulw.cloudfront.net/small_light(dw=120,dh=120,da=l,ds=s,cw=120,ch=120,cc=FFFFFF,of=jpeg)/assets/images/12549/original/e74adf7f-3a18-4814-a412-e6b10f8ed0ed.jpeg?1392712967"},
{"id":4659,"company_name":"Tidal Web","lat":"35.661541","lng":"139.703031","like_count":8,"logo_url":"https://d2v9k5u4v94ulw.cloudfront.net/small_light(dw=120,dh=120,da=l,ds=s,cw=120,ch=120,cc=FFFFFF,of=jpeg)/assets/images/7458/original/3e05090e-1595-4c6d-a7cb-0f5a92f22fcf.png?1392712908"},
{"id":2383,"company_name":"株式会社ホールハート","lat":"35.666724","lng":"139.703873","like_count":8,"logo_url":"https://d2v9k5u4v94ulw.cloudfront.net/small_light(dw=120,dh=120,da=l,ds=s,cw=120,ch=120,cc=FFFFFF,of=jpeg)/assets/images/7297/original/b4048d4d-c945-4e85-bf61-26902a76a779.jpeg?1439943729"},
{"id":5667,"company_name":"株式会社アクアリング","lat":"35.157011","lng":"136.917784","like_count":8,"logo_url":"https://d2v9k5u4v94ulw.cloudfront.net/small_light(dw=120,dh=120,da=l,ds=s,cw=120,ch=120,cc=FFFFFF,of=jpeg)/assets/images/8460/original/0e8ae98d-fecc-408d-89d8-236551866d4f.png?1392712920"},
{"id":252,"company_name":"株式会社ネクスゲート","lat":"35.651362","lng":"139.709634","like_count":8,"logo_url":"https://d2v9k5u4v94ulw.cloudfront.net/small_light(dw=120,dh=120,da=l,ds=s,cw=120,ch=120,cc=FFFFFF,of=jpeg)/assets/images/342/original/ef17bb78-9452-4258-b0ef-cae5af075a4f.png?1451266645"},
{"id":5121,"company_name":"株式会社スクー","lat":"35.656781","lng":"139.695896","like_count":8,"logo_url":"https://d2v9k5u4v94ulw.cloudfront.net/small_light(dw=120,dh=120,da=l,ds=s,cw=120,ch=120,cc=FFFFFF,of=jpeg)/assets/images/1242/original/2ae575fa-dcaa-4bf5-a49d-7d979fb15f37.png?1422927280"},
{"id":5479,"company_name":"株式会社ミニマル・テクノロジーズ","lat":"35.655354","lng":"139.723505","like_count":8,"logo_url":"https://d2v9k5u4v94ulw.cloudfront.net/small_light(dw=120,dh=120,da=l,ds=s,cw=120,ch=120,cc=FFFFFF,of=jpeg)/assets/images/19041/original/a3668a5c-0f63-4ad0-8d74-d929fb1e52f1.png?1401432078"},
{"id":5816,"company_name":"株式会社グッドラックスリー","lat":"33.593027","lng":"130.396958","like_count":8,"logo_url":"https://d2v9k5u4v94ulw.cloudfront.net/small_light(dw=120,dh=120,da=l,ds=s,cw=120,ch=120,cc=FFFFFF,of=jpeg)/assets/images/11704/original/3344ee48-c2e7-4576-ac9d-55459c1648d0.png?1410394628"},
{"id":1909,"company_name":"株式会社forEst","lat":"35.655678","lng":"139.699735","like_count":7,"logo_url":"https://d2v9k5u4v94ulw.cloudfront.net/small_light(dw=120,dh=120,da=l,ds=s,cw=120,ch=120,cc=FFFFFF,of=jpeg)/assets/images/10167/original/41d70fd1-3be8-4ae3-8683-d3c5356194ea.jpeg?1392712938"},
{"id":1632,"company_name":"漢方デスク株式会社","lat":"35.654112","lng":"139.703234","like_count":7,"logo_url":"https://d2v9k5u4v94ulw.cloudfront.net/small_light(dw=120,dh=120,da=l,ds=s,cw=120,ch=120,cc=FFFFFF,of=jpeg)/assets/images/16987/original/260526e0-b0de-4201-b534-4d3ba8183c36.png?1397706519"},
{"id":614,"company_name":"ニューワールド株式会社","lat":"35.691421","lng":"139.692595","like_count":7,"logo_url":"https://d2v9k5u4v94ulw.cloudfront.net/small_light(dw=120,dh=120,da=l,ds=s,cw=120,ch=120,cc=FFFFFF,of=jpeg)/assets/images/17930/original/097a8d0c-728f-4822-a8f7-874ed0eb110f.png?1398849303"},
{"id":5981,"company_name":"株式会社ホットスタートアップ","lat":"35.657344","lng":"139.697712","like_count":7,"logo_url":"https://d2v9k5u4v94ulw.cloudfront.net/small_light(dw=120,dh=120,da=l,ds=s,cw=120,ch=120,cc=FFFFFF,of=jpeg)/assets/images/18430/original/d58e10ef-ea46-4b56-990a-02f5535beaf9.png?1399355221"},
{"id":174,"company_name":"株式会社トライフォート","lat":"35.657511","lng":"139.695524","like_count":7,"logo_url":"https://d2v9k5u4v94ulw.cloudfront.net/small_light(dw=120,dh=120,da=l,ds=s,cw=120,ch=120,cc=FFFFFF,of=jpeg)/assets/images/11193/original/ba6d7c0f-fb26-4e55-9da0-f3519dafd14e.jpeg?1392712948"},
{"id":5218,"company_name":"クロスリバ株式会社","lat":"35.65417","lng":"139.705579","like_count":7,"logo_url":"https://d2v9k5u4v94ulw.cloudfront.net/small_light(dw=120,dh=120,da=l,ds=s,cw=120,ch=120,cc=FFFFFF,of=jpeg)/assets/images/38428/original/2ac2c6df-3339-4c77-87b4-4bb8104fdec1.png?1453617593"},
{"id":5768,"company_name":"Origami Inc.","lat":"35.66415","lng":"139.713833","like_count":7,"logo_url":"https://d2v9k5u4v94ulw.cloudfront.net/small_light(dw=120,dh=120,da=l,ds=s,cw=120,ch=120,cc=FFFFFF,of=jpeg)/assets/images/24798/original/fb360d26-433f-4d62-a8e1-15efe356d194.png?1443422287"},
{"id":4447,"company_name":"ＳＫ特許業務法人","lat":"35.651562","lng":"139.701429","like_count":7,"logo_url":"https://d2v9k5u4v94ulw.cloudfront.net/small_light(dw=120,dh=120,da=l,ds=s,cw=120,ch=120,cc=FFFFFF,of=jpeg)/assets/images/8044/original/33ee878b-a159-462a-9e3e-91f9355fcf25.jpeg?1392712919"},
{"id":5470,"company_name":"株式会社Liquid","lat":"35.684024","lng":"139.763212","like_count":7,"logo_url":"https://d2v9k5u4v94ulw.cloudfront.net/small_light(dw=120,dh=120,da=l,ds=s,cw=120,ch=120,cc=FFFFFF,of=jpeg)/assets/images/57072/original/9925e230-7712-4d7a-ad15-7b294a37a38c.png?1418903703"},
{"id":4812,"company_name":"ブラニュー株式会社","lat":"35.662503","lng":"139.73192","like_count":7,"logo_url":"https://d2v9k5u4v94ulw.cloudfront.net/small_light(dw=120,dh=120,da=l,ds=s,cw=120,ch=120,cc=FFFFFF,of=jpeg)/assets/images/16772/original/0931a33c-1592-48db-9d91-4caf9eeb2191.jpeg?1397541573"},
{"id":4483,"company_name":"株式会社キュービット","lat":"35.646874","lng":"139.710836","like_count":7,"logo_url":"https://d2v9k5u4v94ulw.cloudfront.net/small_light(dw=120,dh=120,da=l,ds=s,cw=120,ch=120,cc=FFFFFF,of=jpeg)/assets/images/7634/original/d3684879-f32c-4f2f-a08c-511f38fb035b.png?1392712910"},
{"id":3950,"company_name":"株式会社ベリーベスト","lat":"35.663167","lng":"139.739658","like_count":7,"logo_url":"https://d2v9k5u4v94ulw.cloudfront.net/small_light(dw=120,dh=120,da=l,ds=s,cw=120,ch=120,cc=FFFFFF,of=jpeg)/assets/images/42073/original/b162daac-9cc1-4443-a210-ebaa30243e6f.jpeg?1414050208"},
{"id":549,"company_name":"FICC inc. ","lat":"35.66183","lng":"139.705592","like_count":7,"logo_url":"https://d2v9k5u4v94ulw.cloudfront.net/small_light(dw=120,dh=120,da=l,ds=s,cw=120,ch=120,cc=FFFFFF,of=jpeg)/assets/images/12428/original/348808bc-6d12-4868-a770-5f5b49ad1112.jpeg?1392712963"},
{"id":4144,"company_name":"キーン・フットウェア株式会社","lat":"35.651351","lng":"139.696465","like_count":7,"logo_url":"https://d2v9k5u4v94ulw.cloudfront.net/small_light(dw=120,dh=120,da=l,ds=s,cw=120,ch=120,cc=FFFFFF,of=jpeg)/assets/images/28559/original/cc6bc0b2-e9cc-4bc3-833f-b962a6618d8a.jpeg?1407137981"},
{"id":5542,"company_name":"株式会社Socket","lat":"35.661989","lng":"139.713289","like_count":6,"logo_url":"https://d2v9k5u4v94ulw.cloudfront.net/small_light(dw=120,dh=120,da=l,ds=s,cw=120,ch=120,cc=FFFFFF,of=jpeg)/assets/images/28048/original/3846ce6b-09eb-41f8-8c10-6092bcc514e2.png?1406287964"},
{"id":5474,"company_name":"株式会社ファンステージ","lat":"35.673839","lng":"139.771461","like_count":6,"logo_url":"https://d2v9k5u4v94ulw.cloudfront.net/small_light(dw=120,dh=120,da=l,ds=s,cw=120,ch=120,cc=FFFFFF,of=jpeg)/assets/images/30612/original/10547f60-ce98-4a4b-935e-1652e23822ef.png?1407775777"},
{"id":3898,"company_name":"株式会社ハイサイド・コーポレーション","lat":"35.643141","lng":"139.702335","like_count":6,"logo_url":"https://d2v9k5u4v94ulw.cloudfront.net/small_light(dw=120,dh=120,da=l,ds=s,cw=120,ch=120,cc=FFFFFF,of=jpeg)/assets/images/31290/original/9cdb4ba4-9bc7-4319-81a0-9c62db07da11.jpeg?1408069517"},
{"id":5452,"company_name":"株式会社ゴーガ","lat":"35.657953","lng":"139.705078","like_count":6,"logo_url":"https://d2v9k5u4v94ulw.cloudfront.net/small_light(dw=120,dh=120,da=l,ds=s,cw=120,ch=120,cc=FFFFFF,of=jpeg)/assets/images/21330/original/73589758-a11c-4ced-9f59-43d2f2410c50.jpeg?1452165992"},
{"id":5250,"company_name":"LIFE STYLE株式会社","lat":"35.659497","lng":"139.717188","like_count":6,"logo_url":"https://d2v9k5u4v94ulw.cloudfront.net/small_light(dw=120,dh=120,da=l,ds=s,cw=120,ch=120,cc=FFFFFF,of=jpeg)/assets/images/34680/original/6dd06fb2-26c3-4f87-9bac-8b0b9436a9ee.png?1409880449"},
{"id":4652,"company_name":"株式会社ワンパク","lat":"35.638874","lng":"139.70176","like_count":6,"logo_url":"https://d2v9k5u4v94ulw.cloudfront.net/small_light(dw=120,dh=120,da=l,ds=s,cw=120,ch=120,cc=FFFFFF,of=jpeg)/assets/images/14130/original/a71da06a-2767-43fe-bbff-c5f88a458da6.jpeg?1394619426"},
{"id":5604,"company_name":"株式会社monopo","lat":"35.671754","lng":"139.715844","like_count":6,"logo_url":"https://d2v9k5u4v94ulw.cloudfront.net/small_light(dw=120,dh=120,da=l,ds=s,cw=120,ch=120,cc=FFFFFF,of=jpeg)/assets/images/164233/original/e2efa9c2-99ec-4dd4-aed7-f55c126c0f0c.jpeg?1438147582"},
{"id":5387,"company_name":"株式会社ホワイトプラス","lat":"35.660941","lng":"139.703942","like_count":6,"logo_url":"https://d2v9k5u4v94ulw.cloudfront.net/small_light(dw=120,dh=120,da=l,ds=s,cw=120,ch=120,cc=FFFFFF,of=jpeg)/assets/images/628/original/474983f5-647e-4448-868d-10315cd09c01.jpeg?1392712785"},
{"id":5860,"company_name":"株式会社トランスリアル","lat":"35.657086","lng":"139.701357","like_count":6,"logo_url":"https://d2v9k5u4v94ulw.cloudfront.net/small_light(dw=120,dh=120,da=l,ds=s,cw=120,ch=120,cc=FFFFFF,of=jpeg)/assets/images/8453/original/eb6c1f1b-7a14-47b7-9c8e-0712adcb4fc8.jpeg?1392712922"},
{"id":4070,"company_name":"株式会社オーセモーション・プロダクツ","lat":"35.654625","lng":"139.693493","like_count":6,"logo_url":"https://d2v9k5u4v94ulw.cloudfront.net/small_light(dw=120,dh=120,da=l,ds=s,cw=120,ch=120,cc=FFFFFF,of=jpeg)/assets/images/35331/original/8e761868-75e0-4f65-a812-8dbd57bc6868.jpeg?1410166661"},
{"id":1872,"company_name":"株式会社ウィナス","lat":"35.727814","lng":"139.708575","like_count":5,"logo_url":"https://d2v9k5u4v94ulw.cloudfront.net/small_light(dw=120,dh=120,da=l,ds=s,cw=120,ch=120,cc=FFFFFF,of=jpeg)/assets/images/29982/original/09d96111-8b77-490e-b723-aaea962b997e.jpeg?1407390787"},
{"id":4218,"company_name":"株式会社GENOVA","lat":"35.662808","lng":"139.696818","like_count":5,"logo_url":"https://d2v9k5u4v94ulw.cloudfront.net/small_light(dw=120,dh=120,da=l,ds=s,cw=120,ch=120,cc=FFFFFF,of=jpeg)/assets/images/73718/original/086c677d-4356-4739-a1f1-64f2198d2803.png?1422250526"},
{"id":5038,"company_name":"trippiece\u003cトリッピース\u003e","lat":"35.636842","lng":"139.722975","like_count":5,"logo_url":"https://d2v9k5u4v94ulw.cloudfront.net/small_light(dw=120,dh=120,da=l,ds=s,cw=120,ch=120,cc=FFFFFF,of=jpeg)/assets/images/859/original/6ba844e3-5e05-4cda-9dc1-f0d5f76459c5.png?1392712793"},
{"id":5881,"company_name":"株式会社wizpra","lat":"35.678925","lng":"139.769589","like_count":5,"logo_url":"https://d2v9k5u4v94ulw.cloudfront.net/small_light(dw=120,dh=120,da=l,ds=s,cw=120,ch=120,cc=FFFFFF,of=jpeg)/assets/images/15253/original/22c527cd-9d69-43d8-8a5b-a70be486b428.png?1430052474"},
{"id":17,"company_name":"株式会社チャモ","lat":"35.6551","lng":"139.698451","like_count":5,"logo_url":"https://d2v9k5u4v94ulw.cloudfront.net/small_light(dw=120,dh=120,da=l,ds=s,cw=120,ch=120,cc=FFFFFF,of=jpeg)/assets/images/280631/original/b7a35615-a362-48e4-8b3f-9686f2a2521a.png?1454073672"},
{"id":4540,"company_name":"BULK HOMME","lat":"35.659834","lng":"139.717094","like_count":5,"logo_url":"https://d2v9k5u4v94ulw.cloudfront.net/small_light(dw=120,dh=120,da=l,ds=s,cw=120,ch=120,cc=FFFFFF,of=jpeg)/assets/images/21193/original/0db6cf4c-c021-4566-965d-8d32b698b9a1.jpeg?1415951422"},
{"id":5782,"company_name":"株式会社テクノモバイル","lat":"35.658595","lng":"139.7136","like_count":5,"logo_url":"https://d2v9k5u4v94ulw.cloudfront.net/small_light(dw=120,dh=120,da=l,ds=s,cw=120,ch=120,cc=FFFFFF,of=jpeg)/assets/images/3089/original/c45c5a89-7cc5-4db9-a6f6-f88151cf1b05.png?1392712848"},
{"id":3909,"company_name":"株式会社ナターシャ","lat":"35.660521","lng":"139.668451","like_count":5,"logo_url":"https://d2v9k5u4v94ulw.cloudfront.net/small_light(dw=120,dh=120,da=l,ds=s,cw=120,ch=120,cc=FFFFFF,of=jpeg)/assets/images/53125/original/efd55fa1-2f53-4075-868b-6b31e8a2ce2c.png?1418105185"},
{"id":4714,"company_name":"ユークリッドラボ株式会社","lat":"35.658528","lng":"139.703401","like_count":5,"logo_url":"https://d2v9k5u4v94ulw.cloudfront.net/small_light(dw=120,dh=120,da=l,ds=s,cw=120,ch=120,cc=FFFFFF,of=jpeg)/assets/images/19922/original/ee37cd73-7f76-4bc8-917f-cf43de8995a3.jpeg?1400636819"},
{"id":4318,"company_name":"株式会社ジャパンプライムムーバ","lat":"35.467563","lng":"139.618615","like_count":5,"logo_url":"https://d2v9k5u4v94ulw.cloudfront.net/small_light(dw=120,dh=120,da=l,ds=s,cw=120,ch=120,cc=FFFFFF,of=jpeg)/assets/images/13314/original/87967845-3770-4def-ab5a-a7ef4ce521d1.jpeg?1393633922"},
{"id":3512,"company_name":"株式会社アズーム","lat":"35.686888","lng":"139.698322","like_count":5,"logo_url":"https://d2v9k5u4v94ulw.cloudfront.net/small_light(dw=120,dh=120,da=l,ds=s,cw=120,ch=120,cc=FFFFFF,of=jpeg)/assets/images/79605/original/ca7ce21b-9f7e-48d8-8481-790dda078dba.jpeg?1423208995"},
{"id":4295,"company_name":"一般社団法人子ども・青少年育成支援協会","lat":"34.701992","lng":"135.491838","like_count":5,"logo_url":"https://d2v9k5u4v94ulw.cloudfront.net/small_light(dw=120,dh=120,da=l,ds=s,cw=120,ch=120,cc=FFFFFF,of=jpeg)/assets/images/13453/original/b5c419b4-dfbc-492f-b93f-26215d790523.png?1393842937"},
{"id":5899,"company_name":"株式会社鈴木商店","lat":"34.693955","lng":"135.507251","like_count":5,"logo_url":"https://d2v9k5u4v94ulw.cloudfront.net/small_light(dw=120,dh=120,da=l,ds=s,cw=120,ch=120,cc=FFFFFF,of=jpeg)/assets/images/18306/original/ecdd0c5d-931e-4094-b94b-269fd35d260e.jpeg?1399178665"},
{"id":5490,"company_name":"Quipper Ltd","lat":"35.677366","lng":"139.770783","like_count":5,"logo_url":"https://d2v9k5u4v94ulw.cloudfront.net/small_light(dw=120,dh=120,da=l,ds=s,cw=120,ch=120,cc=FFFFFF,of=jpeg)/assets/images/1662/original/58bd41ed-5575-47ef-9d7b-342fb45d5056.png?1449669600"},
{"id":3899,"company_name":"株式会社アクセス","lat":"33.592393","lng":"130.400304","like_count":5,"logo_url":"https://d2v9k5u4v94ulw.cloudfront.net/small_light(dw=120,dh=120,da=l,ds=s,cw=120,ch=120,cc=FFFFFF,of=jpeg)/assets/images/30338/original/548e4ee4-6004-4f65-8f43-856084078eb1.jpeg?1407559298"},
{"id":4273,"company_name":"株式会社シルシ","lat":"35.655781","lng":"139.694468","like_count":5,"logo_url":"https://d2v9k5u4v94ulw.cloudfront.net/small_light(dw=120,dh=120,da=l,ds=s,cw=120,ch=120,cc=FFFFFF,of=jpeg)/assets/images/19627/original/d5c868c9-c4f1-491f-bfe9-9f388189913d.png?1400404697"},
{"id":4866,"company_name":"株式会社Be\u0026Do","lat":"34.696121","lng":"135.502476","like_count":5,"logo_url":"https://d2v9k5u4v94ulw.cloudfront.net/small_light(dw=120,dh=120,da=l,ds=s,cw=120,ch=120,cc=FFFFFF,of=jpeg)/assets/images/10302/original/4039df17-352c-49eb-a80a-cc1791cdf209.png?1392712940"},
{"id":2046,"company_name":"ルビー•マーケティング株式会社","lat":"35.650114","lng":"139.751972","like_count":5,"logo_url":"https://d2v9k5u4v94ulw.cloudfront.net/small_light(dw=120,dh=120,da=l,ds=s,cw=120,ch=120,cc=FFFFFF,of=jpeg)/assets/images/12050/original/816d25aa-f254-4bb4-adfa-50679343c149.png?1439254073"},
{"id":5601,"company_name":"株式会社Lang-8","lat":"35.643413","lng":"139.709356","like_count":5,"logo_url":"https://d2v9k5u4v94ulw.cloudfront.net/small_light(dw=120,dh=120,da=l,ds=s,cw=120,ch=120,cc=FFFFFF,of=jpeg)/assets/images/877/original/cba65372-a176-4f24-ba94-9f149e012d42.jpeg?1398675516"},
{"id":148,"company_name":"バリュークリエーション株式会社","lat":"35.660914","lng":"139.703487","like_count":5,"logo_url":"https://d2v9k5u4v94ulw.cloudfront.net/small_light(dw=120,dh=120,da=l,ds=s,cw=120,ch=120,cc=FFFFFF,of=jpeg)/assets/images/53591/original/09d02eb7-b1ab-40e8-b555-23d41f85fb40.png?1418175230"},
{"id":4934,"company_name":"株式会社ネクスト","lat":"35.629169","lng":"139.743212","like_count":5,"logo_url":"https://d2v9k5u4v94ulw.cloudfront.net/small_light(dw=120,dh=120,da=l,ds=s,cw=120,ch=120,cc=FFFFFF,of=jpeg)/assets/images/10883/original/b0473b3c-b9d7-4fcb-a2a3-120c33a8a160.gif?1392712944"},
{"id":4157,"company_name":"VJソリューションズ株式会社","lat":"35.663755","lng":"139.701395","like_count":5,"logo_url":"https://d2v9k5u4v94ulw.cloudfront.net/small_light(dw=120,dh=120,da=l,ds=s,cw=120,ch=120,cc=FFFFFF,of=jpeg)/assets/images/57577/original/56bca500-1b73-4c49-84fb-036307d059ea.png?1419043821"},
{"id":4392,"company_name":"Kauli株式会社","lat":"35.656983","lng":"139.698543","like_count":5,"logo_url":"https://d2v9k5u4v94ulw.cloudfront.net/small_light(dw=120,dh=120,da=l,ds=s,cw=120,ch=120,cc=FFFFFF,of=jpeg)/assets/images/13058/original/151dcb50-cef3-432e-a9e3-d5c72d9c24be.png?1393314444"},
{"id":4768,"company_name":"株式会社リーボ","lat":"33.591518","lng":"130.400729","like_count":5,"logo_url":"https://d2v9k5u4v94ulw.cloudfront.net/small_light(dw=120,dh=120,da=l,ds=s,cw=120,ch=120,cc=FFFFFF,of=jpeg)/assets/images/5996/original/9cd6c1be-c880-4072-9e7c-5565a16d4771.jpeg?1392712889"},
{"id":5530,"company_name":"株式会社トレタ","lat":"35.621905","lng":"139.71932","like_count":5,"logo_url":"https://d2v9k5u4v94ulw.cloudfront.net/small_light(dw=120,dh=120,da=l,ds=s,cw=120,ch=120,cc=FFFFFF,of=jpeg)/assets/images/37619/original/c26b4162-7abb-4b1c-a8d8-51a38b09e910.jpeg?1411541409"},
{"id":4338,"company_name":"ookami, inc.","lat":"35.668352","lng":"139.702887","like_count":5,"logo_url":"https://d2v9k5u4v94ulw.cloudfront.net/small_light(dw=120,dh=120,da=l,ds=s,cw=120,ch=120,cc=FFFFFF,of=jpeg)/assets/images/12375/original/35671c3c-9153-44cc-86ec-998bb87eb59c.png?1392712962"},
{"id":49,"company_name":"VCNC Inc.","lat":"35.655437","lng":"139.692872","like_count":4,"logo_url":"https://d2v9k5u4v94ulw.cloudfront.net/small_light(dw=120,dh=120,da=l,ds=s,cw=120,ch=120,cc=FFFFFF,of=jpeg)/assets/images/6155/original/b30f53ca-dcac-4366-b9cd-145c5368f87d.png?1392712890"},
{"id":2253,"company_name":"株式会社メドレー","lat":"35.663111","lng":"139.731109","like_count":4,"logo_url":"https://d2v9k5u4v94ulw.cloudfront.net/small_light(dw=120,dh=120,da=l,ds=s,cw=120,ch=120,cc=FFFFFF,of=jpeg)/assets/images/389/original/be500e40-6979-4a03-94e8-69261c2dd359.png?1437970152"},
{"id":5433,"company_name":"株式会社ライフスタイルデザイン","lat":"35.664771","lng":"139.700645","like_count":4,"logo_url":"https://d2v9k5u4v94ulw.cloudfront.net/small_light(dw=120,dh=120,da=l,ds=s,cw=120,ch=120,cc=FFFFFF,of=jpeg)/assets/images/13119/original/ecc9d937-24a1-473d-9599-942e58704899.png?1425280156"},
{"id":5411,"company_name":"株式会社Cluex","lat":"35.665034","lng":"139.736423","like_count":4,"logo_url":"https://d2v9k5u4v94ulw.cloudfront.net/small_light(dw=120,dh=120,da=l,ds=s,cw=120,ch=120,cc=FFFFFF,of=jpeg)/assets/images/34473/original/5f1face2-11a8-49ef-91eb-858f6d8628cd.jpeg?1410522686"},
{"id":5660,"company_name":"株式会社ウフル","lat":"35.664437","lng":"139.745402","like_count":4,"logo_url":"https://d2v9k5u4v94ulw.cloudfront.net/small_light(dw=120,dh=120,da=l,ds=s,cw=120,ch=120,cc=FFFFFF,of=jpeg)/assets/images/38759/original/b0139d5a-4a83-43aa-99a8-4aeb1de77e5f.jpeg?1450169476"},
{"id":5425,"company_name":"株式会社アカツキ","lat":"35.64664","lng":"139.701801","like_count":4,"logo_url":"https://d2v9k5u4v94ulw.cloudfront.net/small_light(dw=120,dh=120,da=l,ds=s,cw=120,ch=120,cc=FFFFFF,of=jpeg)/assets/images/6868/original/171fb19d-a978-402a-bb27-21209f43d470.png?1440661433"},
{"id":338,"company_name":"株式会社grooves","lat":"35.661414","lng":"139.71448","like_count":4,"logo_url":"https://d2v9k5u4v94ulw.cloudfront.net/small_light(dw=120,dh=120,da=l,ds=s,cw=120,ch=120,cc=FFFFFF,of=jpeg)/assets/images/36627/original/2561ae26-4442-4796-980c-b9316c2e873b.png?1410920528"},
{"id":4560,"company_name":"株式会社インタラクティブブレインズ","lat":"35.654642","lng":"139.705537","like_count":4,"logo_url":"https://d2v9k5u4v94ulw.cloudfront.net/small_light(dw=120,dh=120,da=l,ds=s,cw=120,ch=120,cc=FFFFFF,of=jpeg)/assets/images/17627/original/5cc91e0b-1609-4559-80a3-06fc47308cd6.png?1398405864"},
{"id":4171,"company_name":"株式会社Open Network Lab","lat":"35.646015","lng":"139.703815","like_count":4,"logo_url":"https://d2v9k5u4v94ulw.cloudfront.net/small_light(dw=120,dh=120,da=l,ds=s,cw=120,ch=120,cc=FFFFFF,of=jpeg)/assets/images/42645/original/7fac05db-75b7-48b4-94c8-e804d3433144.png?1414401520"},
{"id":5566,"company_name":"ラフノート株式会社","lat":"35.657417","lng":"139.723227","like_count":4,"logo_url":"https://d2v9k5u4v94ulw.cloudfront.net/small_light(dw=120,dh=120,da=l,ds=s,cw=120,ch=120,cc=FFFFFF,of=jpeg)/assets/images/43493/original/46e51327-9213-4752-95b5-bdaecb6fb0ea.png?1414734246"},
{"id":5766,"company_name":"ターゲッティング株式会社","lat":"35.66253","lng":"139.710936","like_count":4,"logo_url":"https://d2v9k5u4v94ulw.cloudfront.net/small_light(dw=120,dh=120,da=l,ds=s,cw=120,ch=120,cc=FFFFFF,of=jpeg)/assets/images/152808/original/9174a83c-7134-4634-ac57-c3b8c9fb4ac2.png?1436185181"},
{"id":5856,"company_name":"株式会社カンム","lat":"35.659397","lng":"139.707703","like_count":4,"logo_url":"https://d2v9k5u4v94ulw.cloudfront.net/small_light(dw=120,dh=120,da=l,ds=s,cw=120,ch=120,cc=FFFFFF,of=jpeg)/assets/images/6890/original/4c576af7-98b4-4e5b-8f11-f38032870942.png?1392712900"},
{"id":680,"company_name":"株式会社ヒトクセ","lat":"35.664284","lng":"139.733467","like_count":4,"logo_url":"https://d2v9k5u4v94ulw.cloudfront.net/small_light(dw=120,dh=120,da=l,ds=s,cw=120,ch=120,cc=FFFFFF,of=jpeg)/assets/images/35495/original/6747192a-47fc-47e8-a8e3-2eec85f244c0.png?1410245317"},
{"id":5775,"company_name":"ネクステージ株式会社","lat":"35.716507","lng":"139.702912","like_count":4,"logo_url":"https://d2v9k5u4v94ulw.cloudfront.net/small_light(dw=120,dh=120,da=l,ds=s,cw=120,ch=120,cc=FFFFFF,of=jpeg)/assets/images/11256/original/37d9713b-15ce-44c1-9a0d-d898183314ea.png?1392712948"},
{"id":679,"company_name":"株式会社ホープ","lat":"33.582903","lng":"130.399302","like_count":4,"logo_url":"https://d2v9k5u4v94ulw.cloudfront.net/small_light(dw=120,dh=120,da=l,ds=s,cw=120,ch=120,cc=FFFFFF,of=jpeg)/assets/images/49023/original/e90bc11a-2b8d-4390-9826-a75f8aadacb2.jpeg?1417143563"},
{"id":5297,"company_name":"株式会社レアジョブ","lat":"35.666718","lng":"139.703856","like_count":4,"logo_url":"https://d2v9k5u4v94ulw.cloudfront.net/small_light(dw=120,dh=120,da=l,ds=s,cw=120,ch=120,cc=FFFFFF,of=jpeg)/assets/images/2466/original/b48d7eef-42a6-4ef5-a2af-05556442b3fa.jpeg?1392712839"},
{"id":897,"company_name":"株式会社 アカリ","lat":"35.658639","lng":"139.708111","like_count":4,"logo_url":"https://d2v9k5u4v94ulw.cloudfront.net/small_light(dw=120,dh=120,da=l,ds=s,cw=120,ch=120,cc=FFFFFF,of=jpeg)/assets/images/8185/original/18a695ad-97e4-4bc6-b404-d9832f7b40e6.jpeg?1449477524"},
{"id":4332,"company_name":"エイチアンドダブリュー株式会社","lat":"35.649681","lng":"139.689888","like_count":4,"logo_url":"https://d2v9k5u4v94ulw.cloudfront.net/small_light(dw=120,dh=120,da=l,ds=s,cw=120,ch=120,cc=FFFFFF,of=jpeg)/assets/images/12661/original/9f5cefb9-5e37-40b4-9b31-a6b512e33c2b.jpeg?1392778896"},
{"id":5534,"company_name":"株式会社モブキャスト","lat":"35.661226","lng":"139.732462","like_count":4,"logo_url":"https://d2v9k5u4v94ulw.cloudfront.net/small_light(dw=120,dh=120,da=l,ds=s,cw=120,ch=120,cc=FFFFFF,of=jpeg)/assets/images/105786/original/8d9c5a6e-2368-4b52-ae94-ab1a52c15eb3.png?1427434165"},
{"id":76,"company_name":"株式会社アールストーン","lat":"35.727384","lng":"139.708725","like_count":4,"logo_url":"https://d2v9k5u4v94ulw.cloudfront.net/small_light(dw=120,dh=120,da=l,ds=s,cw=120,ch=120,cc=FFFFFF,of=jpeg)/assets/images/275582/original/e54178e9-86cd-4d01-beda-f0bfdd506491.jpeg?1453807805"},
{"id":5638,"company_name":"株式会社ジーズコンサルティング","lat":"35.656853","lng":"139.70174","like_count":4,"logo_url":"https://d2v9k5u4v94ulw.cloudfront.net/small_light(dw=120,dh=120,da=l,ds=s,cw=120,ch=120,cc=FFFFFF,of=jpeg)/assets/images/34771/original/8581a364-40eb-4168-820d-41eda346dbe9.png?1448594886"},
{"id":5024,"company_name":"株式会社ライフマップ","lat":"35.659633","lng":"139.705081","like_count":4,"logo_url":"https://d2v9k5u4v94ulw.cloudfront.net/small_light(dw=120,dh=120,da=l,ds=s,cw=120,ch=120,cc=FFFFFF,of=jpeg)/assets/images/5021/original/b63285f7-8671-4034-8a29-f2ed7caa50d7.jpeg?1392712874"},
{"id":4529,"company_name":"かっこ株式会社","lat":"35.678037","lng":"139.733669","like_count":4,"logo_url":"https://d2v9k5u4v94ulw.cloudfront.net/small_light(dw=120,dh=120,da=l,ds=s,cw=120,ch=120,cc=FFFFFF,of=jpeg)/assets/images/27504/original/61f2f8e1-7543-4dd8-8aa0-d862a8f2936c.jpeg?1405995948"},
{"id":1126,"company_name":"インクループ株式会社","lat":"35.57004","lng":"139.371724","like_count":4,"logo_url":"https://d2v9k5u4v94ulw.cloudfront.net/small_light(dw=120,dh=120,da=l,ds=s,cw=120,ch=120,cc=FFFFFF,of=jpeg)/assets/images/221862/original/e2b74ed4-2b94-4492-8588-04b659f5cce8.png?1447391880"},
{"id":3708,"company_name":"株式会社LittleSwitch","lat":"35.657819","lng":"139.685838","like_count":4,"logo_url":"https://d2v9k5u4v94ulw.cloudfront.net/small_light(dw=120,dh=120,da=l,ds=s,cw=120,ch=120,cc=FFFFFF,of=jpeg)/assets/images/97811/original/bd9668d9-b5f3-4860-9ab0-2e8d7bd3c58e.png?1426129670"},
{"id":3489,"company_name":"esa LLC","lat":"35.657753","lng":"139.707309","like_count":4,"logo_url":"https://d2v9k5u4v94ulw.cloudfront.net/small_light(dw=120,dh=120,da=l,ds=s,cw=120,ch=120,cc=FFFFFF,of=jpeg)/assets/images/81216/original/58477693-ad35-46c4-9b27-4a87a203dfb7.png?1423491224"},
{"id":4826,"company_name":"株式会社SIX VOICE","lat":"35.659014","lng":"139.70359","like_count":4,"logo_url":"https://d2v9k5u4v94ulw.cloudfront.net/small_light(dw=120,dh=120,da=l,ds=s,cw=120,ch=120,cc=FFFFFF,of=jpeg)/assets/images/11974/original/af19e2c3-ea47-4ee3-9ebc-29301f2ed06b.jpeg?1401935220"},
{"id":220,"company_name":"株式会社サンバード","lat":"35.647238","lng":"139.723438","like_count":4,"logo_url":"https://d2v9k5u4v94ulw.cloudfront.net/small_light(dw=120,dh=120,da=l,ds=s,cw=120,ch=120,cc=FFFFFF,of=jpeg)/assets/images/207694/original/6191fc3b-17c3-4c79-aced-2d7e774415bb.png?1445409793"},
{"id":3921,"company_name":"株式会社パーソンリンク","lat":"35.629343","lng":"139.7154","like_count":4,"logo_url":"https://d2v9k5u4v94ulw.cloudfront.net/small_light(dw=120,dh=120,da=l,ds=s,cw=120,ch=120,cc=FFFFFF,of=jpeg)/assets/images/78106/original/f70b29c8-935c-4afd-b18f-b095bc2c3346.png?1422956860"},
{"id":5355,"company_name":"株式会社オルトプラス","lat":"35.65632","lng":"139.706081","like_count":4,"logo_url":"https://d2v9k5u4v94ulw.cloudfront.net/small_light(dw=120,dh=120,da=l,ds=s,cw=120,ch=120,cc=FFFFFF,of=jpeg)/assets/images/38270/original/ad8c870a-c3f2-4f41-b4a3-7f012b2bfafb.jpeg?1443612493"},
{"id":3798,"company_name":"gooddo株式会社","lat":"35.696031","lng":"139.690523","like_count":4,"logo_url":"https://d2v9k5u4v94ulw.cloudfront.net/small_light(dw=120,dh=120,da=l,ds=s,cw=120,ch=120,cc=FFFFFF,of=jpeg)/assets/images/42851/original/cf7f7bf8-a377-4450-b990-f1b2129b8648.png?1414479506"},
{"id":5321,"company_name":"株式会社ワンダーラスト","lat":"35.660572","lng":"139.708142","like_count":4,"logo_url":"https://d2v9k5u4v94ulw.cloudfront.net/small_light(dw=120,dh=120,da=l,ds=s,cw=120,ch=120,cc=FFFFFF,of=jpeg)/assets/images/5718/original/e1e33522-9268-460a-b9d0-bcb8198a0a40.png?1447748023"},
{"id":4278,"company_name":"株式会社エングラフィア","lat":"35.700969","lng":"139.753131","like_count":4,"logo_url":"https://d2v9k5u4v94ulw.cloudfront.net/small_light(dw=120,dh=120,da=l,ds=s,cw=120,ch=120,cc=FFFFFF,of=jpeg)/assets/images/13936/original/1df529d9-4d97-405e-a48e-b24c6dcf1be2.png?1394430593"},
{"id":3972,"company_name":"株式会社ゲノフ","lat":"35.628727","lng":"139.740804","like_count":4,"logo_url":"https://d2v9k5u4v94ulw.cloudfront.net/small_light(dw=120,dh=120,da=l,ds=s,cw=120,ch=120,cc=FFFFFF,of=jpeg)/assets/images/29716/original/d552ffca-4ab9-4175-907b-e8bbc7a7e0cb.png?1407302096"},
{"id":5044,"company_name":"株式会社モンスター・ラボ","lat":"35.641077","lng":"139.701796","like_count":4,"logo_url":"https://d2v9k5u4v94ulw.cloudfront.net/small_light(dw=120,dh=120,da=l,ds=s,cw=120,ch=120,cc=FFFFFF,of=jpeg)/assets/images/5198/original/da98d38f-3998-4c7f-9b68-c89078d00c5a.png?1409918589"},
{"id":321,"company_name":"株式会社T.Y.Mコーポレーション","lat":"35.672691","lng":"139.738244","like_count":3,"logo_url":"https://d2v9k5u4v94ulw.cloudfront.net/small_light(dw=120,dh=120,da=l,ds=s,cw=120,ch=120,cc=FFFFFF,of=jpeg)/assets/images/17449/original/334aaeee-1bb5-405b-89a1-39ca73909078.jpeg?1398243285"},
{"id":1798,"company_name":"Nota Inc.","lat":"35.030562","lng":"135.759135","like_count":3,"logo_url":"https://d2v9k5u4v94ulw.cloudfront.net/small_light(dw=120,dh=120,da=l,ds=s,cw=120,ch=120,cc=FFFFFF,of=jpeg)/assets/images/32011/original/46300dfd-efbf-4bcd-b883-fc6e8d7904e0.png?1408500622"},
{"id":2424,"company_name":"株式会社H2H","lat":"35.679144","lng":"139.772858","like_count":3,"logo_url":"https://d2v9k5u4v94ulw.cloudfront.net/small_light(dw=120,dh=120,da=l,ds=s,cw=120,ch=120,cc=FFFFFF,of=jpeg)/assets/images/35636/original/ea0a6a2f-d9de-479b-a3d1-23ba17b193cc.png?1419397832"},
{"id":4275,"company_name":"イジゲン株式会社","lat":"33.228851","lng":"131.615807","like_count":3,"logo_url":"https://d2v9k5u4v94ulw.cloudfront.net/small_light(dw=120,dh=120,da=l,ds=s,cw=120,ch=120,cc=FFFFFF,of=jpeg)/assets/images/14041/original/978a2dc7-d0c0-44e7-95d7-ecf53bc6682f.png?1394519335"},
{"id":138,"company_name":"株式会社オンリーストーリー","lat":"35.659558","lng":"139.708267","like_count":3,"logo_url":"https://d2v9k5u4v94ulw.cloudfront.net/small_light(dw=120,dh=120,da=l,ds=s,cw=120,ch=120,cc=FFFFFF,of=jpeg)/assets/images/39534/original/0c835b48-8201-446e-9951-b19169d07e26.jpeg?1412650746"},
{"id":5910,"company_name":"株式会社アイスリーデザイン","lat":"35.659989","lng":"139.708047","like_count":3,"logo_url":"https://d2v9k5u4v94ulw.cloudfront.net/small_light(dw=120,dh=120,da=l,ds=s,cw=120,ch=120,cc=FFFFFF,of=jpeg)/assets/images/8128/original/2e31763f-404e-4f35-a433-fea7eab747d9.png?1392712918"},
{"id":1738,"company_name":"株式会社ピーレックス","lat":"35.655756","lng":"139.704542","like_count":3,"logo_url":"https://d2v9k5u4v94ulw.cloudfront.net/small_light(dw=120,dh=120,da=l,ds=s,cw=120,ch=120,cc=FFFFFF,of=jpeg)/assets/images/176220/original/d5d82771-85c1-441e-94a1-b13dda7f92af.png?1440045760"},
{"id":5099,"company_name":"株式会社ＢＡＫＥ","lat":"35.608905","lng":"139.668978","like_count":3,"logo_url":"https://d2v9k5u4v94ulw.cloudfront.net/small_light(dw=120,dh=120,da=l,ds=s,cw=120,ch=120,cc=FFFFFF,of=jpeg)/assets/images/5671/original/28a15913-b825-4c3b-b46a-a5d7f16ac7bd.jpeg?1428376532"},
{"id":4297,"company_name":"グリー株式会社","lat":"35.660401","lng":"139.729043","like_count":3,"logo_url":"https://d2v9k5u4v94ulw.cloudfront.net/small_light(dw=120,dh=120,da=l,ds=s,cw=120,ch=120,cc=FFFFFF,of=jpeg)/assets/images/14101/original/ef0bd222-a74f-4067-9e6d-9b834ddf6651.png?1394603298"},
{"id":5928,"company_name":"キラメックス株式会社","lat":"35.647041","lng":"139.715775","like_count":3,"logo_url":"https://d2v9k5u4v94ulw.cloudfront.net/small_light(dw=120,dh=120,da=l,ds=s,cw=120,ch=120,cc=FFFFFF,of=jpeg)/assets/images/34749/original/112c1898-3dbf-4f9e-b04c-4809555f78f4.png?1409886821"},
{"id":5742,"company_name":"Bangla Business Partners","lat":"35.657206","lng":"139.699568","like_count":3,"logo_url":"https://d2v9k5u4v94ulw.cloudfront.net/small_light(dw=120,dh=120,da=l,ds=s,cw=120,ch=120,cc=FFFFFF,of=jpeg)/assets/images/130786/original/5dd2f6a5-b637-46e4-8f9c-6604cd730c68.jpeg?1432014014"},
{"id":5794,"company_name":"株式会社ハシゴ","lat":"35.655897","lng":"139.694549","like_count":3,"logo_url":"https://d2v9k5u4v94ulw.cloudfront.net/small_light(dw=120,dh=120,da=l,ds=s,cw=120,ch=120,cc=FFFFFF,of=jpeg)/assets/images/43939/original/be4aa851-7115-4f8e-9793-245c53388631.png?1415072240"},
{"id":2316,"company_name":"株式会社WAKUWAKU","lat":"35.65825","lng":"139.709411","like_count":3,"logo_url":"https://d2v9k5u4v94ulw.cloudfront.net/small_light(dw=120,dh=120,da=l,ds=s,cw=120,ch=120,cc=FFFFFF,of=jpeg)/assets/images/22628/original/b37dabc2-2b8e-4cae-98f3-9da43c875f0b.png?1402704358"},
{"id":993,"company_name":"株式会社ネクステージ","lat":"34.656411","lng":"135.505302","like_count":3,"logo_url":"https://d2v9k5u4v94ulw.cloudfront.net/small_light(dw=120,dh=120,da=l,ds=s,cw=120,ch=120,cc=FFFFFF,of=jpeg)/assets/images/30922/original/ef0fb5db-8692-4cf6-afa5-69b6abebe2e4.png?1407893947"},
{"id":4630,"company_name":"株式会社リアルジャパンプロジェクト","lat":"35.666296","lng":"139.702862","like_count":3,"logo_url":"https://d2v9k5u4v94ulw.cloudfront.net/small_light(dw=120,dh=120,da=l,ds=s,cw=120,ch=120,cc=FFFFFF,of=jpeg)/assets/images/18456/original/dc53d787-6378-4ff8-80b1-d692eee1054e.jpeg?1399368694"},
{"id":4819,"company_name":"株式会社KOMPEITO","lat":"35.678678","lng":"139.70445","like_count":3,"logo_url":"https://d2v9k5u4v94ulw.cloudfront.net/small_light(dw=120,dh=120,da=l,ds=s,cw=120,ch=120,cc=FFFFFF,of=jpeg)/assets/images/17975/original/373a0cc3-3eff-4400-a50c-42c65b349061.jpeg?1398869766"},
{"id":3878,"company_name":"株式会社アライバルクオリティー","lat":"35.648274","lng":"139.707473","like_count":3,"logo_url":"https://d2v9k5u4v94ulw.cloudfront.net/small_light(dw=120,dh=120,da=l,ds=s,cw=120,ch=120,cc=FFFFFF,of=jpeg)/assets/images/35559/original/f0db647e-f57d-4f7a-b36e-161bfb59bcef.jpeg?1412938598"},
{"id":1194,"company_name":"株式会社大王製作所","lat":"35.726979","lng":"139.79643","like_count":3,"logo_url":"https://d2v9k5u4v94ulw.cloudfront.net/small_light(dw=120,dh=120,da=l,ds=s,cw=120,ch=120,cc=FFFFFF,of=jpeg)/assets/images/218588/original/194d7553-6a8b-4c3e-8b24-758b4a4d917e.jpeg?1447057544"},
{"id":5964,"company_name":"クローバーラボ株式会社","lat":"34.7119","lng":"135.498357","like_count":3,"logo_url":"https://d2v9k5u4v94ulw.cloudfront.net/small_light(dw=120,dh=120,da=l,ds=s,cw=120,ch=120,cc=FFFFFF,of=jpeg)/assets/images/54117/original/5d5e43d9-88ab-47a3-a7bf-a6c7c76cc478.png?1447379472"},
{"id":5181,"company_name":"株式会社Rising Asia","lat":"35.658158","lng":"139.697176","like_count":3,"logo_url":"https://d2v9k5u4v94ulw.cloudfront.net/small_light(dw=120,dh=120,da=l,ds=s,cw=120,ch=120,cc=FFFFFF,of=jpeg)/assets/images/14897/original/6e71bb4e-74b3-4f5e-8108-12b3dcdbd6c9.jpeg?1404722819"},
{"id":5880,"company_name":"株式会社まちいろ","lat":"35.726456","lng":"139.711058","like_count":3,"logo_url":"https://d2v9k5u4v94ulw.cloudfront.net/small_light(dw=120,dh=120,da=l,ds=s,cw=120,ch=120,cc=FFFFFF,of=jpeg)/assets/images/90058/original/4d969484-3277-4c02-8414-e119a93af809.png?1424944543"},
{"id":5494,"company_name":"株式会社ブライトテーブル","lat":"35.656608","lng":"139.695288","like_count":3,"logo_url":"https://d2v9k5u4v94ulw.cloudfront.net/small_light(dw=120,dh=120,da=l,ds=s,cw=120,ch=120,cc=FFFFFF,of=jpeg)/assets/images/176553/original/687653ed-52e7-40c6-9024-4eda39af6a2a.png?1440082064"},
{"id":5213,"company_name":"株式会社BearTail","lat":"35.69367","lng":"139.77771","like_count":3,"logo_url":"https://d2v9k5u4v94ulw.cloudfront.net/small_light(dw=120,dh=120,da=l,ds=s,cw=120,ch=120,cc=FFFFFF,of=jpeg)/assets/images/48646/original/d8ca53af-34e3-48c0-b114-bec57ccd6363.jpeg?1429145997"},
{"id":5379,"company_name":"株式会社リッチメディア","lat":"35.694318","lng":"139.695867","like_count":3,"logo_url":"https://d2v9k5u4v94ulw.cloudfront.net/small_light(dw=120,dh=120,da=l,ds=s,cw=120,ch=120,cc=FFFFFF,of=jpeg)/assets/images/216216/original/557726d9-853c-477d-bead-b3834be14857.png?1446645315"},
{"id":5363,"company_name":"株式会社エナジード","lat":"35.642548","lng":"139.747736","like_count":3,"logo_url":"https://d2v9k5u4v94ulw.cloudfront.net/small_light(dw=120,dh=120,da=l,ds=s,cw=120,ch=120,cc=FFFFFF,of=jpeg)/assets/images/100430/original/065ce0e4-ad8d-4dfd-808a-70fc3107331f.jpeg?1428624636"},
{"id":5140,"company_name":"YOOX NET-A-PORTER GROUP","lat":"35.664545","lng":"139.711621","like_count":3,"logo_url":"https://d2v9k5u4v94ulw.cloudfront.net/small_light(dw=120,dh=120,da=l,ds=s,cw=120,ch=120,cc=FFFFFF,of=jpeg)/assets/images/149893/original/87771c2c-2569-4f8b-be81-a3973008a097.jpeg?1445303883"},
{"id":4867,"company_name":"BRUTO, Inc.","lat":"35.653545","lng":"139.708875","like_count":3,"logo_url":"https://d2v9k5u4v94ulw.cloudfront.net/small_light(dw=120,dh=120,da=l,ds=s,cw=120,ch=120,cc=FFFFFF,of=jpeg)/assets/images/12016/original/7831d86e-a182-4c52-9944-8af2a4d814e9.png?1424421716"},
{"id":3711,"company_name":"株式会社Gear8","lat":"43.066129","lng":"141.351254","like_count":3,"logo_url":"https://d2v9k5u4v94ulw.cloudfront.net/small_light(dw=120,dh=120,da=l,ds=s,cw=120,ch=120,cc=FFFFFF,of=jpeg)/assets/images/46772/original/32478422-9943-44af-9042-15a81a0fdc65.gif?1416376282"},
{"id":5104,"company_name":"株式会社Labit","lat":"35.654484","lng":"139.704165","like_count":3,"logo_url":"https://d2v9k5u4v94ulw.cloudfront.net/small_light(dw=120,dh=120,da=l,ds=s,cw=120,ch=120,cc=FFFFFF,of=jpeg)/assets/images/5026/original/e59b448a-0065-45c8-8730-fde638926251.png?1402725222"},
{"id":5586,"company_name":"ハプティック株式会社","lat":"35.6572","lng":"139.707475","like_count":3,"logo_url":"https://d2v9k5u4v94ulw.cloudfront.net/small_light(dw=120,dh=120,da=l,ds=s,cw=120,ch=120,cc=FFFFFF,of=jpeg)/assets/images/35868/original/67502d20-099c-4225-bfc1-e8736309bf6a.jpeg?1410418596"},
{"id":5382,"company_name":"株式会社Decoo","lat":"35.656803","lng":"139.693663","like_count":3,"logo_url":"https://d2v9k5u4v94ulw.cloudfront.net/small_light(dw=120,dh=120,da=l,ds=s,cw=120,ch=120,cc=FFFFFF,of=jpeg)/assets/images/144475/original/ef3de802-9b3d-41ba-a0df-2b988eea76c9.jpeg?1434605383"},
{"id":5123,"company_name":"リレーションズ株式会社","lat":"35.670788","lng":"139.713222","like_count":2,"logo_url":"https://d2v9k5u4v94ulw.cloudfront.net/small_light(dw=120,dh=120,da=l,ds=s,cw=120,ch=120,cc=FFFFFF,of=jpeg)/assets/images/36693/original/c85cfe88-c627-4f55-a033-624678ddbe69.png?1410958475"},
{"id":4700,"company_name":"株式会社L.SQUARE（リッチスクエア）","lat":"35.647751","lng":"139.707337","like_count":2,"logo_url":"https://d2v9k5u4v94ulw.cloudfront.net/small_light(dw=120,dh=120,da=l,ds=s,cw=120,ch=120,cc=FFFFFF,of=jpeg)/assets/images/121100/original/694a758d-5789-43a8-9fca-76ea32ab1cc9.jpeg?1429862841"},
{"id":5551,"company_name":"合同会社ケトハ","lat":"35.782614","lng":"139.725083","like_count":2,"logo_url":"https://d2v9k5u4v94ulw.cloudfront.net/small_light(dw=120,dh=120,da=l,ds=s,cw=120,ch=120,cc=FFFFFF,of=jpeg)/assets/images/1350/original/8fc77dcd-fc2f-4ad1-ae38-f1beba99c41c.png?1427259801"},
{"id":3102,"company_name":"株式会社イー・バード","lat":"35.6539","lng":"139.699037","like_count":2,"logo_url":"https://d2v9k5u4v94ulw.cloudfront.net/small_light(dw=120,dh=120,da=l,ds=s,cw=120,ch=120,cc=FFFFFF,of=jpeg)/assets/images/146574/original/ddc6b486-c5b7-4acc-be98-776a230cbc86.jpeg?1435039895"},
{"id":5119,"company_name":"トゥギャッター株式会社","lat":"35.699855","lng":"139.763786","like_count":2,"logo_url":"https://d2v9k5u4v94ulw.cloudfront.net/small_light(dw=120,dh=120,da=l,ds=s,cw=120,ch=120,cc=FFFFFF,of=jpeg)/assets/images/23873/original/38aed35d-5ad9-45ff-acad-bc11296d25d5.png?1404359492"},
{"id":4517,"company_name":"株式会社クリーマ","lat":"35.669493","lng":"139.713208","like_count":2,"logo_url":"https://d2v9k5u4v94ulw.cloudfront.net/small_light(dw=120,dh=120,da=l,ds=s,cw=120,ch=120,cc=FFFFFF,of=jpeg)/assets/images/21994/original/55bc030f-9a28-43bb-a1b0-9a252b638657.jpeg?1402173158"},
{"id":3518,"company_name":"ソフィー・ジ・アカデミー","lat":"35.651323","lng":"139.709489","like_count":2,"logo_url":"https://d2v9k5u4v94ulw.cloudfront.net/small_light(dw=120,dh=120,da=l,ds=s,cw=120,ch=120,cc=FFFFFF,of=jpeg)/assets/images/80577/original/6fab0aad-ef3c-4d7e-b4fe-ed41589cbe1b.png?1423387770"},
{"id":1998,"company_name":"株式会社ジェネストリーム","lat":"35.622935","lng":"139.720814","like_count":2,"logo_url":"https://d2v9k5u4v94ulw.cloudfront.net/small_light(dw=120,dh=120,da=l,ds=s,cw=120,ch=120,cc=FFFFFF,of=jpeg)/assets/images/1579/original/31c2c751-ef35-4944-b792-6969f729ec05.png?1414398615"},
{"id":5489,"company_name":"株式会社LIFE PEPPER","lat":"35.677586","lng":"139.771625","like_count":2,"logo_url":"https://d2v9k5u4v94ulw.cloudfront.net/small_light(dw=120,dh=120,da=l,ds=s,cw=120,ch=120,cc=FFFFFF,of=jpeg)/assets/images/42320/original/7a1ab306-9683-45ef-8f9d-169186f71845.jpeg?1414146428"},
{"id":4606,"company_name":"株式会社クレオフーガ","lat":"35.624977","lng":"139.722228","like_count":2,"logo_url":"https://d2v9k5u4v94ulw.cloudfront.net/small_light(dw=120,dh=120,da=l,ds=s,cw=120,ch=120,cc=FFFFFF,of=jpeg)/assets/images/15396/original/23f0dbea-220f-4eeb-8ffe-db297d9d1a27.jpeg?1396091507"},
{"id":4285,"company_name":"ナビプラス株式会社","lat":"35.647638","lng":"139.708898","like_count":2,"logo_url":"https://d2v9k5u4v94ulw.cloudfront.net/small_light(dw=120,dh=120,da=l,ds=s,cw=120,ch=120,cc=FFFFFF,of=jpeg)/assets/images/36997/original/b5c9fc78-e144-4607-b68c-1d8c1b67ec8a.png?1411095263"},
{"id":4347,"company_name":"株式会社ＡＬＰＨＡ","lat":"35.712124","lng":"139.704762","like_count":2,"logo_url":"https://d2v9k5u4v94ulw.cloudfront.net/small_light(dw=120,dh=120,da=l,ds=s,cw=120,ch=120,cc=FFFFFF,of=jpeg)/assets/images/12193/original/28f5a722-d5d1-4d19-99f2-6beb6ab7b4ad.png?1392712959"},
{"id":3939,"company_name":"株式会社フューチュレック","lat":"34.73916","lng":"135.497354","like_count":2,"logo_url":"https://d2v9k5u4v94ulw.cloudfront.net/small_light(dw=120,dh=120,da=l,ds=s,cw=120,ch=120,cc=FFFFFF,of=jpeg)/assets/images/41750/original/dd25b013-8f37-479e-bc92-e125a12ea93a.jpeg?1424767067"},
{"id":5194,"company_name":"株式会社Tryfunds","lat":"35.661384","lng":"139.750927","like_count":2,"logo_url":"https://d2v9k5u4v94ulw.cloudfront.net/small_light(dw=120,dh=120,da=l,ds=s,cw=120,ch=120,cc=FFFFFF,of=jpeg)/assets/images/24405/original/9da9dbdd-1e2d-4b38-a598-f2a8e1f1f851.png?1453986217"},
{"id":5692,"company_name":"株式会社ietty","lat":"35.646621","lng":"139.711434","like_count":2,"logo_url":"https://d2v9k5u4v94ulw.cloudfront.net/small_light(dw=120,dh=120,da=l,ds=s,cw=120,ch=120,cc=FFFFFF,of=jpeg)/assets/images/4174/original/05ddd535-ba5c-4c01-933f-1e364cb89870.jpeg?1422875405"},
{"id":2010,"company_name":"IN FOCUS Inc.","lat":"35.667168","lng":"139.705373","like_count":2,"logo_url":"https://d2v9k5u4v94ulw.cloudfront.net/small_light(dw=120,dh=120,da=l,ds=s,cw=120,ch=120,cc=FFFFFF,of=jpeg)/assets/images/28736/original/6bc40bf2-43ee-439f-883c-fdceadac49f6.jpeg?1406734797"},
{"id":2639,"company_name":"株式会社MOPS","lat":"35.661548","lng":"139.756721","like_count":2,"logo_url":"https://d2v9k5u4v94ulw.cloudfront.net/small_light(dw=120,dh=120,da=l,ds=s,cw=120,ch=120,cc=FFFFFF,of=jpeg)/assets/images/146643/original/c7757211-fb09-4101-a7c7-8c9f71a21c6a.png?1435038680"},
{"id":2544,"company_name":"株式会社プロフィット・ラボラトリー","lat":"35.674946","lng":"139.737269","like_count":2,"logo_url":"https://d2v9k5u4v94ulw.cloudfront.net/small_light(dw=120,dh=120,da=l,ds=s,cw=120,ch=120,cc=FFFFFF,of=jpeg)/assets/images/13024/original/fc0254b9-10f2-4df9-9156-9b4e2b83f011.png?1393291252"},
{"id":215,"company_name":"株式会社マスカチ","lat":"35.657344","lng":"139.697712","like_count":2,"logo_url":"https://d2v9k5u4v94ulw.cloudfront.net/small_light(dw=120,dh=120,da=l,ds=s,cw=120,ch=120,cc=FFFFFF,of=jpeg)/assets/images/5629/original/ab93cc19-ad71-49d4-86a1-54d6ecb9d535.png?1453199338"},
{"id":5705,"company_name":"Kaizen Platform","lat":"35.691421","lng":"139.692595","like_count":2,"logo_url":"https://d2v9k5u4v94ulw.cloudfront.net/small_light(dw=120,dh=120,da=l,ds=s,cw=120,ch=120,cc=FFFFFF,of=jpeg)/assets/images/7443/original/eedc25a5-a1b8-41f0-a7a6-31b8576b261a.png?1414934477"},
{"id":3714,"company_name":"株式会社ATGS","lat":"35.730428","lng":"139.715633","like_count":2,"logo_url":"https://d2v9k5u4v94ulw.cloudfront.net/small_light(dw=120,dh=120,da=l,ds=s,cw=120,ch=120,cc=FFFFFF,of=jpeg)/assets/images/59491/original/a07f47bd-bf16-48cf-add6-15b87b6e8ece.png?1419466074"},
{"id":5248,"company_name":"スタディプラス株式会社","lat":"35.680636","lng":"139.700542","like_count":2,"logo_url":"https://d2v9k5u4v94ulw.cloudfront.net/small_light(dw=120,dh=120,da=l,ds=s,cw=120,ch=120,cc=FFFFFF,of=jpeg)/assets/images/3034/original/a11dd7b2-bdaf-4920-b5c8-790dba7ffb49.png?1392712845"},
{"id":922,"company_name":"株式会社ティーケーピー","lat":"35.69233","lng":"139.734538","like_count":2,"logo_url":"https://d2v9k5u4v94ulw.cloudfront.net/small_light(dw=120,dh=120,da=l,ds=s,cw=120,ch=120,cc=FFFFFF,of=jpeg)/assets/images/36696/original/f6394382-598e-448d-993a-28af03aa9ef1.jpeg?1410944815"},
{"id":4048,"company_name":"株式会社アイキューブドシステムズ","lat":"33.558881","lng":"130.428975","like_count":2,"logo_url":"https://d2v9k5u4v94ulw.cloudfront.net/small_light(dw=120,dh=120,da=l,ds=s,cw=120,ch=120,cc=FFFFFF,of=jpeg)/assets/images/35867/original/a48647a2-c176-4f02-9b39-80e3b2640a46.png?1429586442"},
{"id":2698,"company_name":"フィリピンつながり交流会","lat":"35.661162","lng":"139.733909","like_count":2,"logo_url":"https://d2v9k5u4v94ulw.cloudfront.net/small_light(dw=120,dh=120,da=l,ds=s,cw=120,ch=120,cc=FFFFFF,of=jpeg)/assets/images/3108/original/e7bc8353-9383-4352-8e76-85066b2b534a.png?1392712847"},
{"id":5075,"company_name":"株式会社スペースマーケット","lat":"35.692262","lng":"139.688593","like_count":2,"logo_url":"https://d2v9k5u4v94ulw.cloudfront.net/small_light(dw=120,dh=120,da=l,ds=s,cw=120,ch=120,cc=FFFFFF,of=jpeg)/assets/images/19709/original/782cada2-e735-4ac3-80d3-b6c2c2deedb6.png?1400491735"},
{"id":386,"company_name":"seven dreamers laboratories　株式会社","lat":"35.653577","lng":"139.744778","like_count":2,"logo_url":"https://d2v9k5u4v94ulw.cloudfront.net/small_light(dw=120,dh=120,da=l,ds=s,cw=120,ch=120,cc=FFFFFF,of=jpeg)/assets/images/183828/original/3e6f77bb-b384-4ed6-8a07-ae0e84e07765.png?1441348760"},
{"id":2257,"company_name":"株式会社アールフォース・エンターテインメント","lat":"35.653878","lng":"139.694016","like_count":2,"logo_url":"https://d2v9k5u4v94ulw.cloudfront.net/small_light(dw=120,dh=120,da=l,ds=s,cw=120,ch=120,cc=FFFFFF,of=jpeg)/assets/images/9191/original/64c5f758-48c9-4a40-b9e6-e313ec196c93.png?1392712929"},
{"id":2134,"company_name":"株式会社ニューオーダー","lat":"35.681079","lng":"139.734928","like_count":2,"logo_url":"https://d2v9k5u4v94ulw.cloudfront.net/small_light(dw=120,dh=120,da=l,ds=s,cw=120,ch=120,cc=FFFFFF,of=jpeg)/assets/images/12726/original/164639a1-bd49-4c18-93c2-e2d13ec626ef.jpeg?1437658423"},
{"id":98,"company_name":"株式会社アグリゲート","lat":"35.654609","lng":"139.713828","like_count":2,"logo_url":"https://d2v9k5u4v94ulw.cloudfront.net/small_light(dw=120,dh=120,da=l,ds=s,cw=120,ch=120,cc=FFFFFF,of=jpeg)/assets/images/35418/original/b6be356d-8f42-4958-a974-597e0771f61d.jpeg?1410220713"},
{"id":1451,"company_name":"株式会社グローブテイルズ","lat":"35.700049","lng":"139.649581","like_count":2,"logo_url":"https://d2v9k5u4v94ulw.cloudfront.net/small_light(dw=120,dh=120,da=l,ds=s,cw=120,ch=120,cc=FFFFFF,of=jpeg)/assets/images/6579/original/79cdd206-39b4-4b3a-adc6-0474a514f1d4.jpeg?1392712895"},
{"id":4186,"company_name":"お茶の水内科","lat":"35.696167","lng":"139.761325","like_count":2,"logo_url":"https://d2v9k5u4v94ulw.cloudfront.net/small_light(dw=120,dh=120,da=l,ds=s,cw=120,ch=120,cc=FFFFFF,of=jpeg)/assets/images/31181/original/836a3ec5-c6ba-4210-b5da-169a7fd51ea3.jpeg?1408000930"},
{"id":4853,"company_name":"株式会社stulio","lat":"35.661106","lng":"139.724843","like_count":2,"logo_url":"https://d2v9k5u4v94ulw.cloudfront.net/small_light(dw=120,dh=120,da=l,ds=s,cw=120,ch=120,cc=FFFFFF,of=jpeg)/assets/images/10307/original/f27cd46b-2fba-483f-9bec-4238f363a4e1.jpeg?1392712940"},
{"id":4783,"company_name":"株式会社ワンアール","lat":"35.671615","lng":"139.687135","like_count":2,"logo_url":"https://d2v9k5u4v94ulw.cloudfront.net/small_light(dw=120,dh=120,da=l,ds=s,cw=120,ch=120,cc=FFFFFF,of=jpeg)/assets/images/5851/original/b245493e-c03b-45b9-a7e5-db4fb42b39de.png?1392712885"},
{"id":4373,"company_name":"株式会社ECホールディングス","lat":"35.655553","lng":"139.692227","like_count":2,"logo_url":"https://d2v9k5u4v94ulw.cloudfront.net/small_light(dw=120,dh=120,da=l,ds=s,cw=120,ch=120,cc=FFFFFF,of=jpeg)/assets/images/113039/original/f82fed96-ede0-4faa-8bee-db1868faca4b.png?1428561120"},
{"id":5198,"company_name":"株式会社フランジア・ジャパン","lat":"35.657906","lng":"139.704848","like_count":2,"logo_url":"https://d2v9k5u4v94ulw.cloudfront.net/small_light(dw=120,dh=120,da=l,ds=s,cw=120,ch=120,cc=FFFFFF,of=jpeg)/assets/images/30261/original/fa68c8ff-14ee-4d19-b01a-72c910f83605.png?1408348130"},
{"id":1741,"company_name":"株式会社アジケ","lat":"35.670116","lng":"139.733339","like_count":2,"logo_url":"https://d2v9k5u4v94ulw.cloudfront.net/small_light(dw=120,dh=120,da=l,ds=s,cw=120,ch=120,cc=FFFFFF,of=jpeg)/assets/images/5287/original/1b315a64-2875-4963-ab34-74d0a5f0b8dd.jpeg?1392712878"},
{"id":4781,"company_name":"株式会社Cajon","lat":"35.695745","lng":"139.687721","like_count":2,"logo_url":"https://d2v9k5u4v94ulw.cloudfront.net/small_light(dw=120,dh=120,da=l,ds=s,cw=120,ch=120,cc=FFFFFF,of=jpeg)/assets/images/6048/original/14ab018a-afa3-471c-998b-29a0e4f5bbd5.jpeg?1392712888"},
{"id":5414,"company_name":"Wondershake, Inc. ","lat":"35.646182","lng":"139.70194","like_count":2,"logo_url":"https://d2v9k5u4v94ulw.cloudfront.net/small_light(dw=120,dh=120,da=l,ds=s,cw=120,ch=120,cc=FFFFFF,of=jpeg)/assets/images/4953/original/5b499bf8-5641-4375-a721-616a4d11a6de.png?1421743177"},
{"id":4165,"company_name":"株式会社ジェネレーションパス","lat":"35.694045","lng":"139.689615","like_count":2,"logo_url":"https://d2v9k5u4v94ulw.cloudfront.net/small_light(dw=120,dh=120,da=l,ds=s,cw=120,ch=120,cc=FFFFFF,of=jpeg)/assets/images/43466/original/3fac7064-ee64-4068-8884-11bd9277c387.jpeg?1416455947"},
{"id":2955,"company_name":"株式会社FASH international","lat":"35.65277","lng":"139.705798","like_count":2,"logo_url":"https://d2v9k5u4v94ulw.cloudfront.net/small_light(dw=120,dh=120,da=l,ds=s,cw=120,ch=120,cc=FFFFFF,of=jpeg)/assets/images/115364/original/495932b5-659a-4ae9-a200-f26123120b6f.jpeg?1428981213"},
{"id":4098,"company_name":"株式会社フルサイズイメージ","lat":"35.655172","lng":"139.698115","like_count":2,"logo_url":"https://d2v9k5u4v94ulw.cloudfront.net/small_light(dw=120,dh=120,da=l,ds=s,cw=120,ch=120,cc=FFFFFF,of=jpeg)/assets/images/25826/original/929075fb-4dad-4aa1-afcd-216b0b610738.jpeg?1404873107"},
{"id":5421,"company_name":"株式会社バンダイナムコスタジオ","lat":"35.67511","lng":"139.792129","like_count":2,"logo_url":"https://d2v9k5u4v94ulw.cloudfront.net/small_light(dw=120,dh=120,da=l,ds=s,cw=120,ch=120,cc=FFFFFF,of=jpeg)/assets/images/34908/original/3f1489ff-d323-4cdd-943e-a1804912e572.png?1409906167"},
{"id":711,"company_name":"株式会社ライゾマティクス","lat":"35.653217","lng":"139.711036","like_count":2,"logo_url":"https://d2v9k5u4v94ulw.cloudfront.net/small_light(dw=120,dh=120,da=l,ds=s,cw=120,ch=120,cc=FFFFFF,of=jpeg)/assets/images/29955/original/9d8edf02-cc25-4d4a-a7dc-79f5f003aed6.png?1407389492"},
{"id":1267,"company_name":"株式会社トランス","lat":"35.656312","lng":"139.704021","like_count":2,"logo_url":"https://d2v9k5u4v94ulw.cloudfront.net/small_light(dw=120,dh=120,da=l,ds=s,cw=120,ch=120,cc=FFFFFF,of=jpeg)/assets/images/216440/original/74a56abe-ed5c-4c68-a472-5cb4cf85d79f.png?1446696835"},
{"id":1970,"company_name":"バーチャルコミュニケーションズ株式会社","lat":"35.692418","lng":"139.689576","like_count":2,"logo_url":"https://d2v9k5u4v94ulw.cloudfront.net/small_light(dw=120,dh=120,da=l,ds=s,cw=120,ch=120,cc=FFFFFF,of=jpeg)/assets/images/183253/original/40adee27-1988-4f8e-8baf-55f00203ada9.jpeg?1441420086"},
{"id":3863,"company_name":"株式会社エイド・ディーシーシー","lat":"34.67977","lng":"135.498444","like_count":2,"logo_url":"https://d2v9k5u4v94ulw.cloudfront.net/small_light(dw=120,dh=120,da=l,ds=s,cw=120,ch=120,cc=FFFFFF,of=jpeg)/assets/images/32525/original/5f1f35a5-661a-468a-912c-593b75a89262.png?1408693003"},
{"id":4257,"company_name":"株式会社Glamnail","lat":"35.695515","lng":"139.703152","like_count":2,"logo_url":"https://d2v9k5u4v94ulw.cloudfront.net/small_light(dw=120,dh=120,da=l,ds=s,cw=120,ch=120,cc=FFFFFF,of=jpeg)/assets/images/21653/original/8175751e-25a2-4aef-9dad-cbaf938bf5c1.png?1401940542"},
{"id":4711,"company_name":"Happy Elements株式会社","lat":"35.015119","lng":"135.76886","like_count":2,"logo_url":"https://d2v9k5u4v94ulw.cloudfront.net/small_light(dw=120,dh=120,da=l,ds=s,cw=120,ch=120,cc=FFFFFF,of=jpeg)/assets/images/6532/original/bb4d2810-1f24-4207-8d2b-5614f8fed2ed.png?1392712894"},
{"id":1027,"company_name":"ウエルネスデータ株式会社","lat":"35.682587","lng":"139.764409","like_count":2,"logo_url":"https://d2v9k5u4v94ulw.cloudfront.net/small_light(dw=120,dh=120,da=l,ds=s,cw=120,ch=120,cc=FFFFFF,of=jpeg)/assets/images/225044/original/742dbfb4-6027-48ea-87a9-4e7054b6da9a.png?1447929892"},
{"id":118,"company_name":"株式会社フィールド","lat":"35.660289","lng":"139.703445","like_count":2,"logo_url":"https://d2v9k5u4v94ulw.cloudfront.net/small_light(dw=120,dh=120,da=l,ds=s,cw=120,ch=120,cc=FFFFFF,of=jpeg)/assets/images/3031/original/3fd51f94-eb01-4368-96f2-68af3a180798.jpeg?1403273799"},
{"id":5041,"company_name":"株式会社LITALICO","lat":"35.643602","lng":"139.699077","like_count":2,"logo_url":"https://d2v9k5u4v94ulw.cloudfront.net/small_light(dw=120,dh=120,da=l,ds=s,cw=120,ch=120,cc=FFFFFF,of=jpeg)/assets/images/32440/original/e2446995-eb76-4a5a-8565-e5a3a24305b9.jpeg?1438331029"},
{"id":4017,"company_name":"eleven＊nines株式会社","lat":"35.696951","lng":"139.698236","like_count":2,"logo_url":"https://d2v9k5u4v94ulw.cloudfront.net/small_light(dw=120,dh=120,da=l,ds=s,cw=120,ch=120,cc=FFFFFF,of=jpeg)/assets/images/26834/original/022d2482-4409-4754-9932-f3ab652bcefe.png?1405476765"},
{"id":4526,"company_name":"株式会社グース","lat":"35.152931","lng":"136.904699","like_count":2,"logo_url":"https://d2v9k5u4v94ulw.cloudfront.net/small_light(dw=120,dh=120,da=l,ds=s,cw=120,ch=120,cc=FFFFFF,of=jpeg)/assets/images/19736/original/2c4f61e4-1a0d-4eee-8799-c5efe94af070.jpeg?1400498969"},
{"id":4548,"company_name":"AQ株式会社","lat":"35.661214","lng":"139.719521","like_count":2,"logo_url":"https://d2v9k5u4v94ulw.cloudfront.net/small_light(dw=120,dh=120,da=l,ds=s,cw=120,ch=120,cc=FFFFFF,of=jpeg)/assets/images/18076/original/331f68b1-2142-427d-8e79-ee9f52bd5c21.jpeg?1398936257"},
{"id":623,"company_name":"株式会社エニグモ","lat":"35.667008","lng":"139.727068","like_count":2,"logo_url":"https://d2v9k5u4v94ulw.cloudfront.net/small_light(dw=120,dh=120,da=l,ds=s,cw=120,ch=120,cc=FFFFFF,of=jpeg)/assets/images/3057/original/862cafb2-04e7-4022-94f5-b0fe8518eb01.png?1392712847"},
{"id":4490,"company_name":"株式会社Euno","lat":"35.722937","lng":"139.701668","like_count":2,"logo_url":"https://d2v9k5u4v94ulw.cloudfront.net/small_light(dw=120,dh=120,da=l,ds=s,cw=120,ch=120,cc=FFFFFF,of=jpeg)/assets/images/7850/original/25b5ac04-b9fe-4879-b310-c3a829171532.jpeg?1392712914"},
{"id":4662,"company_name":"兼松グランクス株式会社","lat":"35.704109","lng":"139.708309","like_count":2,"logo_url":"https://d2v9k5u4v94ulw.cloudfront.net/small_light(dw=120,dh=120,da=l,ds=s,cw=120,ch=120,cc=FFFFFF,of=jpeg)/assets/images/7640/original/fc50506b-73f9-4043-9da2-89e9bacda3d5.png?1392712910"},
{"id":4300,"company_name":"株式会社トレフ","lat":"35.658678","lng":"139.697643","like_count":2,"logo_url":"https://d2v9k5u4v94ulw.cloudfront.net/small_light(dw=120,dh=120,da=l,ds=s,cw=120,ch=120,cc=FFFFFF,of=jpeg)/assets/images/13518/original/1dd07ad2-b21d-438b-aad9-e995a5f1ad54.png?1393871728"},
{"id":5247,"company_name":"株式会社mofmof","lat":"35.655008","lng":"139.695957","like_count":2,"logo_url":"https://d2v9k5u4v94ulw.cloudfront.net/small_light(dw=120,dh=120,da=l,ds=s,cw=120,ch=120,cc=FFFFFF,of=jpeg)/assets/images/118776/original/9954cb28-ab52-4404-8368-c831fef77172.png?1429512581"},
{"id":4578,"company_name":"株式会社デコム","lat":"35.651657","lng":"139.709253","like_count":2,"logo_url":"https://d2v9k5u4v94ulw.cloudfront.net/small_light(dw=120,dh=120,da=l,ds=s,cw=120,ch=120,cc=FFFFFF,of=jpeg)/assets/images/16490/original/7257037f-a4c9-4b5b-8407-2177fbed3709.jpeg?1397184355"},
{"id":5471,"company_name":"株式会社コノル","lat":"35.696348","lng":"139.694514","like_count":2,"logo_url":"https://d2v9k5u4v94ulw.cloudfront.net/small_light(dw=120,dh=120,da=l,ds=s,cw=120,ch=120,cc=FFFFFF,of=jpeg)/assets/images/6275/original/87dfdcbb-43e8-4025-844e-0a00a704e378.png?1392712892"},
{"id":4702,"company_name":"アクシス株式会社","lat":"35.668941","lng":"139.717135","like_count":2,"logo_url":"https://d2v9k5u4v94ulw.cloudfront.net/small_light(dw=120,dh=120,da=l,ds=s,cw=120,ch=120,cc=FFFFFF,of=jpeg)/assets/images/6627/original/d4adbc28-9ceb-446c-b701-7f7c8a85e4c6.jpeg?1392712896"},
{"id":1554,"company_name":"株式会社ヒッツカンパニー","lat":"35.634339","lng":"139.712798","like_count":2,"logo_url":"https://d2v9k5u4v94ulw.cloudfront.net/small_light(dw=120,dh=120,da=l,ds=s,cw=120,ch=120,cc=FFFFFF,of=jpeg)/assets/images/202890/original/214fefec-5871-4872-9662-a9d5fdb74eac.jpeg?1444782728"},
{"id":4651,"company_name":"株式会社キラリト","lat":"35.65705","lng":"139.699079","like_count":2,"logo_url":"https://d2v9k5u4v94ulw.cloudfront.net/small_light(dw=120,dh=120,da=l,ds=s,cw=120,ch=120,cc=FFFFFF,of=jpeg)/assets/images/15887/original/522f0236-a662-4837-b839-d231aafd2571.jpeg?1396579850"},
{"id":2053,"company_name":"株式会社アイリンクインベストメント","lat":"33.590149","lng":"130.396155","like_count":2,"logo_url":"https://d2v9k5u4v94ulw.cloudfront.net/small_light(dw=120,dh=120,da=l,ds=s,cw=120,ch=120,cc=FFFFFF,of=jpeg)/assets/images/180037/original/0f250ee7-6ebb-4ebe-81ec-29cfea611e1d.jpeg?1440730802"},
{"id":5369,"company_name":"株式会社ipoca","lat":"35.668967","lng":"139.760409","like_count":2,"logo_url":"https://d2v9k5u4v94ulw.cloudfront.net/small_light(dw=120,dh=120,da=l,ds=s,cw=120,ch=120,cc=FFFFFF,of=jpeg)/assets/images/3056/original/3df2b773-4cc6-4da5-8ee6-48f5dea7be8b.png?1450252223"},
{"id":250,"company_name":"メリービズ株式会社","lat":"35.663405","lng":"139.710311","like_count":2,"logo_url":"https://d2v9k5u4v94ulw.cloudfront.net/small_light(dw=120,dh=120,da=l,ds=s,cw=120,ch=120,cc=FFFFFF,of=jpeg)/assets/images/648/original/002c1146-4eec-4bf4-b46e-3f666d6c1257.png?1404669235"},
{"id":391,"company_name":"株式会社シンプリック","lat":"35.645757","lng":"139.707417","like_count":2,"logo_url":"https://d2v9k5u4v94ulw.cloudfront.net/small_light(dw=120,dh=120,da=l,ds=s,cw=120,ch=120,cc=FFFFFF,of=jpeg)/assets/images/95864/original/09d640eb-88af-4239-b9cc-96d125c10d54.png?1425879217"},
{"id":5205,"company_name":"パペルック株式会社","lat":"35.662964","lng":"139.709942","like_count":2,"logo_url":"https://d2v9k5u4v94ulw.cloudfront.net/small_light(dw=120,dh=120,da=l,ds=s,cw=120,ch=120,cc=FFFFFF,of=jpeg)/assets/images/580/original/e3668416-4e68-4926-8f71-eb0b7169981a.png?1451125997"},
{"id":5913,"company_name":"株式会社エージェント","lat":"35.660763","lng":"139.696974","like_count":2,"logo_url":"https://d2v9k5u4v94ulw.cloudfront.net/small_light(dw=120,dh=120,da=l,ds=s,cw=120,ch=120,cc=FFFFFF,of=jpeg)/assets/images/47178/original/e7de67e3-2e85-4a23-b048-01be920f00e9.jpeg?1418197080"},
{"id":1598,"company_name":"株式会社プルークス","lat":"35.648955","lng":"139.745047","like_count":2,"logo_url":"https://d2v9k5u4v94ulw.cloudfront.net/small_light(dw=120,dh=120,da=l,ds=s,cw=120,ch=120,cc=FFFFFF,of=jpeg)/assets/images/163610/original/2cff59b8-3e58-46b0-b7ed-bff1ca6f2928.jpeg?1438049005"},
{"id":1244,"company_name":"アタラ合同会社","lat":"35.669508","lng":"139.732506","like_count":2,"logo_url":"https://d2v9k5u4v94ulw.cloudfront.net/small_light(dw=120,dh=120,da=l,ds=s,cw=120,ch=120,cc=FFFFFF,of=jpeg)/assets/images/1118/original/square_w_url.png?1392712803"},
{"id":3586,"company_name":"株式会社hontoブックサービス","lat":"35.628318","lng":"139.718948","like_count":2,"logo_url":"https://d2v9k5u4v94ulw.cloudfront.net/small_light(dw=120,dh=120,da=l,ds=s,cw=120,ch=120,cc=FFFFFF,of=jpeg)/assets/images/105276/original/b11ed2c2-fbd4-48b9-aaa0-ef73a8a92344.png?1427363816"},
{"id":289,"company_name":"株式会社シーブレイン","lat":"35.447069","lng":"139.634437","like_count":2,"logo_url":"https://d2v9k5u4v94ulw.cloudfront.net/small_light(dw=120,dh=120,da=l,ds=s,cw=120,ch=120,cc=FFFFFF,of=jpeg)/assets/images/5765/original/cff29ff9-1d2a-42bb-b380-8910a42e88f9.gif?1392712885"},
{"id":5125,"company_name":"ユナイテッド株式会社","lat":"35.661708","lng":"139.70665","like_count":2,"logo_url":"https://d2v9k5u4v94ulw.cloudfront.net/small_light(dw=120,dh=120,da=l,ds=s,cw=120,ch=120,cc=FFFFFF,of=jpeg)/assets/images/5478/original/4bcc19fb-b25a-452f-9e34-b635a7d830e4.jpeg?1392712880"},
{"id":1601,"company_name":"株式会社スピードリンクジャパン","lat":"35.657269","lng":"139.696635","like_count":2,"logo_url":"https://d2v9k5u4v94ulw.cloudfront.net/small_light(dw=120,dh=120,da=l,ds=s,cw=120,ch=120,cc=FFFFFF,of=jpeg)/assets/images/20489/original/1d247ebb-4a3b-4ba2-a4f8-bb9ddd91494a.png?1401095200"},
{"id":2558,"company_name":"スレトシスジャパン株式会社","lat":"35.664794","lng":"139.715047","like_count":2,"logo_url":"https://d2v9k5u4v94ulw.cloudfront.net/small_light(dw=120,dh=120,da=l,ds=s,cw=120,ch=120,cc=FFFFFF,of=jpeg)/assets/images/156156/original/8c8e1da0-e264-4b47-8bca-6a1ed83ecb03.jpeg?1436758103"},
{"id":3739,"company_name":"Coaido株式会社","lat":"35.632857","lng":"139.737549","like_count":2,"logo_url":"https://d2v9k5u4v94ulw.cloudfront.net/small_light(dw=120,dh=120,da=l,ds=s,cw=120,ch=120,cc=FFFFFF,of=jpeg)/assets/images/45558/original/ae6e79e6-6746-4746-ad99-f51716903133.png?1415787465"},
{"id":3339,"company_name":"株式会社アクティブデザイン","lat":"35.700761","lng":"139.681379","like_count":2,"logo_url":"https://d2v9k5u4v94ulw.cloudfront.net/small_light(dw=120,dh=120,da=l,ds=s,cw=120,ch=120,cc=FFFFFF,of=jpeg)/assets/images/88783/original/fa886dd1-af26-469d-a1ba-f346088f7fab.jpeg?1424775521"},
{"id":1730,"company_name":"株式会社サイズ","lat":"35.668315","lng":"139.687569","like_count":2,"logo_url":"https://d2v9k5u4v94ulw.cloudfront.net/small_light(dw=120,dh=120,da=l,ds=s,cw=120,ch=120,cc=FFFFFF,of=jpeg)/assets/images/216006/original/11820ab3-d7c6-4e5b-8a4e-e8d2b867e506.jpeg?1446626226"},
{"id":5429,"company_name":"株式会社Samurai","lat":"35.655795","lng":"139.706426","like_count":2,"logo_url":"https://d2v9k5u4v94ulw.cloudfront.net/small_light(dw=120,dh=120,da=l,ds=s,cw=120,ch=120,cc=FFFFFF,of=jpeg)/assets/images/12569/original/473afdfd-cafc-47fa-9955-e4e91c1a9956.jpeg?1392712968"},
{"id":5243,"company_name":"STYLER","lat":"35.663285","lng":"139.699926","like_count":2,"logo_url":"https://d2v9k5u4v94ulw.cloudfront.net/small_light(dw=120,dh=120,da=l,ds=s,cw=120,ch=120,cc=FFFFFF,of=jpeg)/assets/images/93940/original/02e78421-0779-4346-9bd3-347e54fa2bf5.jpeg?1425535436"},
{"id":7,"company_name":"株式会社SnSnap ","lat":"35.657809","lng":"139.709631","like_count":2,"logo_url":"https://d2v9k5u4v94ulw.cloudfront.net/small_light(dw=120,dh=120,da=l,ds=s,cw=120,ch=120,cc=FFFFFF,of=jpeg)/assets/images/230618/original/d1d78d9e-88ae-4dba-9166-068f3dd114d5.png?1453288577"},
{"id":966,"company_name":"株式会社MOBB","lat":"34.66889","lng":"135.489353","like_count":2,"logo_url":"https://d2v9k5u4v94ulw.cloudfront.net/small_light(dw=120,dh=120,da=l,ds=s,cw=120,ch=120,cc=FFFFFF,of=jpeg)/assets/images/228024/original/83d80cf0-6b31-4b57-a89f-05b3ca6d1774.png?1448349728"},
{"id":5562,"company_name":"株式会社スマートドライブ","lat":"35.654625","lng":"139.693493","like_count":2,"logo_url":"https://d2v9k5u4v94ulw.cloudfront.net/small_light(dw=120,dh=120,da=l,ds=s,cw=120,ch=120,cc=FFFFFF,of=jpeg)/assets/images/120969/original/4b071d46-7704-4377-be83-eb2fc1fe8283.png?1431867705"},
{"id":4379,"company_name":"株式会社ワークポート","lat":"35.622308","lng":"139.72733","like_count":2,"logo_url":"https://d2v9k5u4v94ulw.cloudfront.net/small_light(dw=120,dh=120,da=l,ds=s,cw=120,ch=120,cc=FFFFFF,of=jpeg)/assets/images/8720/original/7f207f9a-23b8-48d3-a73b-2ac9c9768220.png?1392712923"},
{"id":4963,"company_name":"株式会社フレクト","lat":"35.647418","lng":"139.713209","like_count":2,"logo_url":"https://d2v9k5u4v94ulw.cloudfront.net/small_light(dw=120,dh=120,da=l,ds=s,cw=120,ch=120,cc=FFFFFF,of=jpeg)/assets/images/10874/original/328d4480-36b0-40e8-902b-333292018879.gif?1392712945"},
{"id":5290,"company_name":"ビズシード株式会社","lat":"35.675486","lng":"139.768448","like_count":2,"logo_url":"https://d2v9k5u4v94ulw.cloudfront.net/small_light(dw=120,dh=120,da=l,ds=s,cw=120,ch=120,cc=FFFFFF,of=jpeg)/assets/images/54624/original/b404152e-238e-4273-afae-1c4dc359085b.png?1418367559"},
{"id":4534,"company_name":"株式会社オムニバス","lat":"35.644966","lng":"139.70997","like_count":2,"logo_url":"https://d2v9k5u4v94ulw.cloudfront.net/small_light(dw=120,dh=120,da=l,ds=s,cw=120,ch=120,cc=FFFFFF,of=jpeg)/assets/images/18731/original/268bcf00-64fe-49e6-8c7f-b9e1ddad62dc.png?1399620153"},
{"id":843,"company_name":"株式会社マッシュスポーツラボ","lat":"35.683061","lng":"139.734028","like_count":2,"logo_url":"https://d2v9k5u4v94ulw.cloudfront.net/small_light(dw=120,dh=120,da=l,ds=s,cw=120,ch=120,cc=FFFFFF,of=jpeg)/assets/images/235820/original/e92b912f-0026-450c-bff5-9d1f63bf6491.jpeg?1449313155"},
{"id":3248,"company_name":"株式会社村田ソフトウェアサービス","lat":"34.674709","lng":"135.496641","like_count":2,"logo_url":"https://d2v9k5u4v94ulw.cloudfront.net/small_light(dw=120,dh=120,da=l,ds=s,cw=120,ch=120,cc=FFFFFF,of=jpeg)/assets/images/88563/original/60ba0134-9023-4c48-ba88-40de193a0454.gif?1424758674"},
{"id":3994,"company_name":"Crocs Japan GK","lat":"35.626894","lng":"139.631444","like_count":2,"logo_url":"https://d2v9k5u4v94ulw.cloudfront.net/small_light(dw=120,dh=120,da=l,ds=s,cw=120,ch=120,cc=FFFFFF,of=jpeg)/assets/images/30163/original/e0e39de7-e429-44b4-bac9-d8119e5dad90.png?1407470726"},
{"id":5185,"company_name":"Orange Inc.","lat":"35.625788","lng":"139.734118","like_count":2,"logo_url":"https://d2v9k5u4v94ulw.cloudfront.net/small_light(dw=120,dh=120,da=l,ds=s,cw=120,ch=120,cc=FFFFFF,of=jpeg)/assets/images/4973/original/e3970013-c502-4dd7-ba8f-bf192b4fa792.png?1422580568"},
{"id":3822,"company_name":"株式会社プラットフォーム・ワン","lat":"35.642336","lng":"139.713436","like_count":2,"logo_url":"https://d2v9k5u4v94ulw.cloudfront.net/small_light(dw=120,dh=120,da=l,ds=s,cw=120,ch=120,cc=FFFFFF,of=jpeg)/assets/images/40521/original/1d80dbad-4b6e-41b2-8985-ceaffe9e495a.png?1413251272"},
{"id":5346,"company_name":"株式会社葵","lat":"35.685484","lng":"139.729683","like_count":1,"logo_url":"https://d2v9k5u4v94ulw.cloudfront.net/small_light(dw=120,dh=120,da=l,ds=s,cw=120,ch=120,cc=FFFFFF,of=jpeg)/assets/images/9936/original/25a72bd1-b5ae-45f3-9edd-b0470ae6d8ff.png?1392712936"},
{"id":97,"company_name":"株式会社タイムシェア","lat":"35.655585","lng":"139.701588","like_count":1,"logo_url":"https://d2v9k5u4v94ulw.cloudfront.net/small_light(dw=120,dh=120,da=l,ds=s,cw=120,ch=120,cc=FFFFFF,of=jpeg)/assets/images/275865/original/9ae05403-c612-464a-9833-d6d54a1caa70.png?1453808958"},
{"id":3379,"company_name":"The Up!","lat":"35.661933","lng":"139.695004","like_count":1,"logo_url":"https://d2v9k5u4v94ulw.cloudfront.net/small_light(dw=120,dh=120,da=l,ds=s,cw=120,ch=120,cc=FFFFFF,of=jpeg)/assets/images/75578/original/3102acf5-f159-4dbe-8fae-5da092d38839.jpeg?1422543536"},
{"id":4563,"company_name":"株式会社アロハワークス","lat":"35.697792","lng":"139.774374","like_count":1,"logo_url":"https://d2v9k5u4v94ulw.cloudfront.net/small_light(dw=120,dh=120,da=l,ds=s,cw=120,ch=120,cc=FFFFFF,of=jpeg)/assets/images/22205/original/c63ddf51-82af-4843-9db8-0fb7fe077875.png?1402372040"},
{"id":4296,"company_name":"株式会社エニタイムズ","lat":"35.688736","lng":"139.728967","like_count":1,"logo_url":"https://d2v9k5u4v94ulw.cloudfront.net/small_light(dw=120,dh=120,da=l,ds=s,cw=120,ch=120,cc=FFFFFF,of=jpeg)/assets/images/16390/original/0a6dd93a-f99f-4152-9b10-479280a41803.png?1432185277"},
{"id":5287,"company_name":"株式会社キュービックホールディングス","lat":"35.696109","lng":"139.689484","like_count":1,"logo_url":"https://d2v9k5u4v94ulw.cloudfront.net/small_light(dw=120,dh=120,da=l,ds=s,cw=120,ch=120,cc=FFFFFF,of=jpeg)/assets/images/30991/original/0c98e403-7ca3-435e-bbcf-eee5c619db24.png?1407912412"},